time_s,x,y,z,roll_rad,pitch_rad,yaw_rad,vx_cmd,vy_cmd,vz_cmd,target_x,target_y,target_z,target_yaw,dist_m,yaw_err_rad,speed_ms,wind_enabled,rl_profile
0.02,0.0,0.0,0.9759,0.0,-0.0,0.0,0.9936,0.9936,0.525,2.0,2.0,2.0,0.0,3.0081,0.0,1.5,0,0
0.04,0.0001,0.0001,0.9418,-0.0083,0.0083,-0.0004,0.5251,0.5255,0.2968,2.0,2.0,2.0,0.0,3.0198,0.0004,0.8,0,3
0.06,0.0007,0.0007,0.9235,-0.0143,0.0143,0.001,0.7949,0.7934,0.4225,2.0,2.0,2.0,0.0,3.0254,-0.001,1.2,0,1
0.08,0.0025,0.0025,0.9205,-0.0207,0.0207,-0.0003,0.7997,0.8002,0.4001,2.0,2.0,2.0,0.0,3.0241,0.0003,1.2,0,1
0.1,0.0059,0.0059,0.9289,-0.0273,0.0273,0.0001,1.0049,1.0047,0.4804,2.0,2.0,2.0,0.0,3.0166,-0.0001,1.5,0,0
0.12,0.0112,0.0113,0.9468,-0.0334,0.0333,-0.0004,0.5413,0.5417,0.2314,2.0,2.0,2.0,0.0,3.0033,0.0004,0.8,0,3
0.14,0.0187,0.0188,0.9687,-0.0367,0.0367,0.0009,1.0141,1.0122,0.4437,2.0,2.0,2.0,0.0,2.9857,-0.0009,1.5,0,0
0.16,0.0285,0.0286,0.9931,-0.0426,0.0426,-0.0003,0.3451,0.3453,0.1081,2.0,2.0,2.0,0.0,2.9643,0.0003,0.5,0,6
0.18,0.0408,0.0409,1.0178,-0.042,0.042,0.0014,0.3789,0.3778,0.1273,2.0,2.0,2.0,0.0,2.9396,-0.0014,0.55,0,5
0.2,0.0554,0.0555,1.0382,-0.0422,0.0423,-0.0003,0.4099,0.41,0.1546,2.0,2.0,2.0,0.0,2.9134,0.0003,0.6,0,4
0.22,0.0722,0.0723,1.0556,-0.0427,0.0427,-0.0001,1.0153,1.0154,0.4336,2.0,2.0,2.0,0.0,2.8852,0.0001,1.5,0,0
0.24,0.0915,0.0916,1.0739,-0.0532,0.053,-0.0021,0.6779,0.6806,0.278,2.0,2.0,2.0,0.0,2.8534,0.0021,1.0,0,2
0.26,0.1137,0.1138,1.0943,-0.0552,0.055,-0.0001,0.5451,0.5451,0.214,2.0,2.0,2.0,0.0,2.8171,0.0001,0.8,0,3
0.28,0.1386,0.1388,1.1131,-0.0544,0.0544,-0.0001,0.5447,0.5446,0.2162,2.0,2.0,2.0,0.0,2.7777,0.0001,0.8,0,3
0.3,0.1663,0.1665,1.1307,-0.0543,0.0543,-0.0003,0.6791,0.6794,0.2781,2.0,2.0,2.0,0.0,2.7349,0.0003,1.0,0,2
0.32,0.1967,0.1969,1.1489,-0.0556,0.0556,-0.0014,0.3409,0.3416,0.1306,2.0,2.0,2.0,0.0,2.6884,0.0014,0.5,0,6
0.34,0.2296,0.2299,1.166,-0.0526,0.0525,0.0007,0.3735,0.3728,0.1548,2.0,2.0,2.0,0.0,2.6388,-0.0007,0.55,0,5
0.36,0.2648,0.2652,1.1809,-0.0493,0.0493,-0.0009,0.3046,0.3048,0.1297,2.0,2.0,2.0,0.0,2.5868,0.0009,0.45,0,7
0.38,0.302,0.3024,1.1943,-0.0458,0.0459,0.0004,0.3024,0.3018,0.1412,2.0,2.0,2.0,0.0,2.5327,-0.0004,0.45,0,7
0.4,0.3408,0.3412,1.2066,-0.042,0.0418,-0.0002,0.4008,0.4007,0.197,2.0,2.0,2.0,0.0,2.4767,0.0002,0.6,0,4
0.42,0.381,0.3815,1.2193,-0.0389,0.0389,-0.0007,0.3996,0.3998,0.2013,2.0,2.0,2.0,0.0,2.4187,0.0007,0.6,0,4
0.44,0.4225,0.423,1.233,-0.037,0.0371,-0.0003,0.3655,0.3653,0.1883,2.0,2.0,2.0,0.0,2.3588,0.0003,0.55,0,5
0.46,0.4649,0.4654,1.247,-0.0345,0.0346,-0.0003,0.6725,0.6726,0.3089,2.0,2.0,2.0,0.0,2.2975,0.0003,1.0,0,2
0.48,0.5081,0.5086,1.2627,-0.0349,0.0351,-0.0018,0.3302,0.331,0.1771,2.0,2.0,2.0,0.0,2.2346,0.0018,0.5,0,6
0.5,0.552,0.5526,1.279,-0.0319,0.0319,0.0006,0.5387,0.5377,0.2463,2.0,2.0,2.0,0.0,2.1705,-0.0006,0.8,0,3
0.52,0.5966,0.5972,1.2951,-0.0316,0.0317,-0.0017,1.0039,1.0068,0.478,2.0,2.0,2.0,0.0,2.1058,0.0017,1.5,0,0
0.54,0.6418,0.6424,1.3143,-0.0373,0.0376,-0.0021,1.0048,1.0086,0.4723,2.0,2.0,2.0,0.0,2.0391,0.0021,1.5,0,0
0.56,0.688,0.6886,1.3381,-0.0412,0.0413,-0.0025,0.4002,0.402,0.1954,2.0,2.0,2.0,0.0,1.9696,0.0025,0.6,0,4
0.58,0.7352,0.7358,1.3627,-0.0387,0.0385,-0.0005,0.6753,0.6756,0.2958,2.0,2.0,2.0,0.0,1.8984,0.0005,1.0,0,2
0.6,0.7834,0.7839,1.386,-0.0396,0.0399,-0.0026,0.364,0.3659,0.19,2.0,2.0,2.0,0.0,1.8265,0.0026,0.55,0,5
0.62,0.8323,0.8328,1.4073,-0.0359,0.0358,0.0004,0.394,0.3938,0.2229,2.0,2.0,2.0,0.0,1.7542,-0.0004,0.6,0,4
0.64,0.8818,0.8822,1.4266,-0.0324,0.0319,-0.0015,0.8015,0.8036,0.3898,2.0,2.0,2.0,0.0,1.6819,0.0015,1.2,0,1
0.66,0.9316,0.9321,1.4469,-0.035,0.0348,-0.0017,0.668,0.6701,0.3237,2.0,2.0,2.0,0.0,1.6087,0.0017,1.0,0,2
0.68,0.982,0.9824,1.4685,-0.0355,0.0351,0.0,0.5361,0.5358,0.2559,2.0,2.0,2.0,0.0,1.5344,-0.0,0.8,0,3
0.7,1.0328,1.0332,1.4892,-0.0338,0.0335,0.0005,-0.0697,-0.0696,-0.0171,2.0,2.0,2.0,0.0,1.4598,-0.0005,0.1,0,12
0.72,1.0837,1.0841,1.5063,-0.0227,0.0227,0.0018,-0.0279,-0.0278,-0.0067,2.0,2.0,2.0,0.0,1.3864,-0.0018,0.04,0,15
0.74,1.1341,1.1346,1.5178,-0.0162,0.0162,0.0008,-0.106,-0.106,0.0065,2.0,2.0,2.0,0.0,1.3157,-0.0008,0.15,0,9
0.76,1.1838,1.1844,1.5258,-0.0114,0.0113,0.0013,-0.0846,-0.0845,0.0107,2.0,2.0,2.0,0.0,1.2475,-0.0013,0.12,0,10
0.78,1.2324,1.2329,1.5313,-0.0037,0.0037,0.0007,-0.0565,-0.0565,0.0031,2.0,2.0,2.0,0.0,1.1821,-0.0007,0.08,0,13
0.8,1.2793,1.28,1.5351,0.0029,-0.0029,0.0009,0.7398,0.7373,0.5909,2.0,2.0,2.0,0.0,1.1198,-0.0009,1.2,0,1
0.82,1.3245,1.3252,1.5419,-0.0027,0.003,-0.0012,-0.0705,-0.0708,0.0027,2.0,2.0,2.0,0.0,1.059,0.0012,0.1,0,12
0.84,1.368,1.3687,1.554,0.0073,-0.0071,0.0009,-0.0752,-0.0771,0.4883,2.0,2.0,2.0,0.0,0.9985,-0.0009,0.5,0,6
0.86,1.4093,1.41,1.5679,0.0163,-0.016,-0.0012,-0.0847,-0.085,-0.0028,2.0,2.0,2.0,0.0,0.94,0.0012,0.12,0,10
0.88,1.4482,1.4489,1.5831,0.0205,-0.0203,-0.0002,-0.0278,-0.0278,-0.0075,2.0,2.0,2.0,0.0,0.8843,0.0002,0.04,0,15
0.9,1.4844,1.485,1.5938,0.0231,-0.0228,-0.0007,-0.0422,-0.0423,-0.0052,2.0,2.0,2.0,0.0,0.8343,0.0007,0.06,0,14
0.92,1.5177,1.5184,1.6007,0.0261,-0.0258,-0.0008,0.5713,0.5713,0.5893,2.0,2.0,2.0,0.0,0.7899,0.0008,1.0,0,2
0.94,1.5482,1.5488,1.6093,0.0203,-0.0199,-0.0023,0.4518,0.4534,0.4799,2.0,2.0,2.0,0.0,0.7486,0.0023,0.8,0,3
0.96,1.5759,1.5765,1.6255,0.0159,-0.016,0.0003,-0.1403,-0.1399,-0.0273,2.0,2.0,2.0,0.0,0.7067,-0.0003,0.2,0,8
0.98,1.6014,1.6019,1.6436,0.0211,-0.0213,0.0003,-0.0537,-0.0535,-0.0257,2.0,2.0,2.0,0.0,0.6666,-0.0003,0.08,0,13
1.0,1.6248,1.6252,1.6563,0.0237,-0.0236,-0.0,0.0564,0.058,0.4934,2.0,2.0,2.0,0.0,0.632,0.0,0.5,0,6
1.02,1.6457,1.6461,1.6685,0.0243,-0.0241,-0.001,0.5862,0.5873,0.558,2.0,2.0,2.0,0.0,0.6005,0.001,1.0,0,2
1.04,1.6642,1.6645,1.6885,0.0172,-0.0171,-0.0013,0.7455,0.7475,0.5705,2.0,2.0,2.0,0.0,0.5678,0.0013,1.2,0,1
1.06,1.6808,1.681,1.716,0.0063,-0.0061,-0.0011,-0.0281,-0.028,-0.045,2.0,2.0,2.0,0.0,0.5332,0.0011,0.06,0,14
1.08,1.6964,1.6965,1.7441,0.006,-0.006,0.0005,-0.0564,-0.0558,-0.09,2.0,2.0,2.0,0.0,0.4998,-0.0005,0.12,0,10
1.1,1.7109,1.711,1.7625,0.0092,-0.0093,0.0009,-0.06,-0.0593,-0.0537,2.0,2.0,2.0,0.0,0.4728,-0.0009,0.1,0,11
1.12,1.7243,1.7243,1.7732,0.0138,-0.0137,0.0001,0.7526,0.7539,0.5524,2.0,2.0,2.0,0.0,0.451,-0.0001,1.2,0,1
1.14,1.7366,1.7365,1.7836,0.0005,-0.0004,-0.001,-0.1019,-0.1008,-0.0442,2.0,2.0,2.0,0.0,0.4309,0.001,0.15,0,9
1.16,1.7482,1.748,1.7974,0.0029,-0.0031,0.0011,-0.1172,-0.1153,-0.1138,2.0,2.0,2.0,0.0,0.4098,-0.0011,0.2,0,8
1.18,1.7591,1.7589,1.8055,0.0069,-0.0072,0.0012,0.9401,0.9405,0.694,2.0,2.0,2.0,0.0,0.3924,-0.0012,1.5,0,0
1.2,1.7693,1.769,1.8148,-0.0003,0.0002,0.0008,0.6388,0.6398,0.4273,2.0,2.0,2.0,0.0,0.3754,-0.0008,1.0,0,2
1.22,1.779,1.7787,1.833,-0.0061,0.0059,0.0021,-0.0609,-0.0601,-0.1232,2.0,2.0,2.0,0.0,0.3546,-0.0021,0.15,0,9
1.24,1.7887,1.7883,1.8517,-0.0039,0.0036,0.0025,-0.0338,-0.0335,-0.0643,2.0,2.0,2.0,0.0,0.3339,-0.0025,0.08,0,13
1.26,1.7983,1.7979,1.8638,-0.0016,0.0013,0.0011,0.6797,0.6799,0.2751,2.0,2.0,2.0,0.0,0.3164,-0.0011,1.0,0,2
1.28,1.8078,1.8074,1.8735,-0.0129,0.0127,0.0001,0.542,0.543,0.2267,2.0,2.0,2.0,0.0,0.3,-0.0001,0.8,0,3
1.3,1.8177,1.8174,1.8846,-0.0164,0.0162,0.0013,-0.0473,-0.0473,-0.0438,2.0,2.0,2.0,0.0,0.2826,-0.0013,0.08,0,13
1.32,1.8282,1.8279,1.8944,-0.0112,0.0111,0.0018,0.1896,0.1823,-0.4252,2.0,2.0,2.0,0.0,0.2651,-0.0018,0.5,0,6
1.34,1.8391,1.8389,1.8969,-0.0107,0.0111,0.0026,-0.0424,-0.0424,0.001,2.0,2.0,2.0,0.0,0.2499,-0.0026,0.06,0,14
1.36,1.8503,1.85,1.8923,-0.0075,0.0079,0.0001,0.094,0.0941,0.1199,2.0,2.0,2.0,0.0,0.2377,-0.0001,0.179,0,2
1.38,1.8616,1.8613,1.8894,-0.0055,0.0058,-0.0002,-0.023,-0.0229,0.0825,2.0,2.0,2.0,0.0,0.225,0.0002,0.0887,0,6
1.4,1.8729,1.8726,1.8894,-0.0031,0.0032,0.0006,-0.0694,-0.0692,0.0202,2.0,2.0,2.0,0.0,0.2113,-0.0006,0.1,0,11
1.42,1.8839,1.8837,1.8896,0.0001,0.0001,0.0014,-0.0122,-0.0117,0.081,2.0,2.0,2.0,0.0,0.198,-0.0014,0.0828,0,4
1.44,1.8946,1.8943,1.8907,0.003,-0.0029,-0.0003,-0.0279,-0.0274,0.0629,2.0,2.0,2.0,0.0,0.185,0.0003,0.074,0,5
1.46,1.9048,1.9044,1.893,0.0043,-0.0042,0.0006,0.0637,0.0642,0.1063,2.0,2.0,2.0,0.0,0.1722,-0.0006,0.1395,0,0
1.48,1.9142,1.9139,1.8966,0.0055,-0.0054,-0.0008,-0.0283,-0.0281,-0.0032,2.0,2.0,2.0,0.0,0.1596,0.0008,0.04,0,15
1.5,1.923,1.9226,1.8999,0.0067,-0.0067,0.0013,-0.0426,-0.0422,-0.0027,2.0,2.0,2.0,0.0,0.1481,-0.0013,0.06,0,14
1.52,1.931,1.9306,1.9017,0.0082,-0.0081,-0.0002,-0.0566,-0.0561,0.0072,2.0,2.0,2.0,0.0,0.1387,0.0002,0.08,0,13
1.54,1.9382,1.9377,1.9029,0.0099,-0.0099,0.0003,0.0199,0.0206,0.0718,2.0,2.0,2.0,0.0,0.1309,-0.0003,0.0774,0,3
1.56,1.9444,1.9439,1.9047,0.0109,-0.0109,-0.001,-0.0424,-0.042,0.0062,2.0,2.0,2.0,0.0,0.1238,0.001,0.06,0,14
1.58,1.9497,1.9491,1.9062,0.0111,-0.0112,0.001,0.0289,0.0297,0.0865,2.0,2.0,2.0,0.0,0.118,-0.001,0.096,0,1
1.6,1.9541,1.9534,1.908,0.0116,-0.0116,-0.0014,-0.0499,-0.0491,0.0139,2.0,2.0,2.0,0.0,0.1129,0.0014,0.0714,0,11
1.62,1.9575,1.9568,1.9096,0.0119,-0.012,0.0014,-0.0433,-0.0422,0.0228,2.0,2.0,2.0,0.0,0.1089,-0.0014,0.0646,0,8
1.64,1.96,1.9593,1.9106,0.013,-0.013,-0.0006,-0.026,-0.0253,0.031,2.0,2.0,2.0,0.0,0.1061,0.0006,0.0477,0,8
1.66,1.9616,1.9608,1.9118,0.013,-0.0131,0.0001,0.0168,0.0176,0.0572,2.0,2.0,2.0,0.0,0.1039,-0.0001,0.0622,0,4
1.68,1.9623,1.9615,1.9137,0.0121,-0.0122,-0.0008,0.0418,0.0428,0.0854,2.0,2.0,2.0,0.0,0.1018,0.0008,0.1043,0,0
1.7,1.9621,1.9614,1.9168,0.0111,-0.0111,-0.0008,0.0258,0.0264,0.0223,2.0,2.0,2.0,0.0,0.0992,0.0008,0.0432,0,6
1.72,1.9613,1.9605,1.9195,0.0095,-0.0096,0.0007,0.0452,0.0454,-0.003,2.0,2.0,2.0,0.0,0.0976,-0.0007,0.0641,0,13
1.74,1.9598,1.9591,1.921,0.0092,-0.0093,0.0001,0.0369,0.0373,0.0248,2.0,2.0,2.0,0.0,0.0977,-0.0001,0.058,0,7
1.76,1.9578,1.957,1.9221,0.0075,-0.0075,-0.0002,0.0565,0.0566,0.0191,2.0,2.0,2.0,0.0,0.0985,0.0002,0.0822,0,10
1.78,1.9553,1.9546,1.9233,0.0068,-0.0068,-0.0001,0.0583,0.0587,0.0407,2.0,2.0,2.0,0.0,0.0997,0.0001,0.0922,0,5
1.8,1.9524,1.9517,1.9253,0.0054,-0.0053,-0.0001,0.0722,0.0722,0.0077,2.0,2.0,2.0,0.0,0.1009,0.0001,0.1024,0,10
1.82,1.9494,1.9487,1.9271,0.004,-0.004,0.0004,0.0737,0.0741,0.041,2.0,2.0,2.0,0.0,0.1025,-0.0004,0.1123,0,4
1.84,1.9462,1.9455,1.9293,0.0019,-0.0018,0.0001,0.067,0.0673,0.022,2.0,2.0,2.0,0.0,0.1042,-0.0001,0.0975,0,6
1.86,1.9429,1.9423,1.9317,0.0005,-0.0004,0.0004,0.0676,0.0681,0.0427,2.0,2.0,2.0,0.0,0.1061,-0.0004,0.105,0,3
1.88,1.9397,1.9391,1.9345,-0.0001,0.0002,0.0001,0.0705,0.0708,-0.0043,2.0,2.0,2.0,0.0,0.1079,-0.0001,0.1,0,11
1.9,1.9367,1.936,1.9363,-0.0008,0.0011,0.0013,0.0893,0.0897,0.0061,2.0,2.0,2.0,0.0,0.1103,-0.0013,0.1268,0,9
1.92,1.9339,1.9332,1.9372,-0.0025,0.0028,0.0,0.0783,0.0792,0.0171,2.0,2.0,2.0,0.0,0.1131,-0.0,0.1127,0,10
1.94,1.9314,1.9306,1.9379,-0.0043,0.0045,0.0002,0.0684,0.0695,0.0221,2.0,2.0,2.0,0.0,0.1157,-0.0002,0.1,0,12
1.96,1.9292,1.9283,1.9389,-0.0047,0.0049,-0.0002,0.0693,0.0707,0.0154,2.0,2.0,2.0,0.0,0.1179,0.0002,0.1002,0,10
1.98,1.9273,1.9264,1.9394,-0.0044,0.0045,-0.0007,0.0582,0.0594,0.0236,2.0,2.0,2.0,0.0,0.1199,0.0007,0.0864,0,7
2.0,1.9259,1.9249,1.9399,-0.006,0.006,-0.0007,0.0738,0.0751,0.0458,2.0,2.0,2.0,0.0,0.1214,0.0007,0.1148,0,3
2.02,1.9249,1.9239,1.941,-0.006,0.0059,-0.0011,0.0586,0.06,0.0237,2.0,2.0,2.0,0.0,0.1221,0.0011,0.0872,0,6
2.04,1.9244,1.9233,1.9425,-0.0069,0.0069,-0.0005,0.0404,0.042,0.0142,2.0,2.0,2.0,0.0,0.1221,0.0005,0.06,0,14
2.06,1.9242,1.9231,1.9437,-0.007,0.0069,-0.0007,0.0335,0.0351,0.0188,2.0,2.0,2.0,0.0,0.1217,0.0007,0.052,0,14
2.08,1.9245,1.9233,1.9449,-0.0066,0.0065,-0.0007,0.0664,0.0678,0.0382,2.0,2.0,2.0,0.0,0.1208,0.0007,0.1023,0,3
2.1,1.9253,1.924,1.9464,-0.0063,0.0061,-0.001,0.0193,0.0205,0.0059,2.0,2.0,2.0,0.0,0.1193,0.001,0.0288,0,10
2.12,1.9264,1.9251,1.9477,-0.0068,0.0067,-0.0002,0.0512,0.0526,0.0299,2.0,2.0,2.0,0.0,0.1173,0.0002,0.0792,0,4
2.14,1.928,1.9267,1.9489,-0.0062,0.006,-0.001,0.0458,0.0472,0.0295,2.0,2.0,2.0,0.0,0.1148,0.001,0.0721,0,4
2.16,1.9298,1.9285,1.9503,-0.0067,0.0065,-0.0005,-0.0002,0.0006,0.0063,2.0,2.0,2.0,0.0,0.1118,0.0005,0.0063,0,8
2.18,1.9321,1.9307,1.9515,-0.0059,0.0058,-0.0003,0.022,0.0229,0.0176,2.0,2.0,2.0,0.0,0.1084,0.0003,0.0363,0,6
2.2,1.9346,1.9333,1.9525,-0.0047,0.0045,-0.0006,-0.0149,-0.0144,0.0122,2.0,2.0,2.0,0.0,0.1048,0.0006,0.024,0,8
2.22,1.9373,1.936,1.9535,-0.0047,0.0046,-0.0004,0.0257,0.0267,0.0277,2.0,2.0,2.0,0.0,0.1009,0.0004,0.0463,0,4
2.24,1.9403,1.939,1.9546,-0.0038,0.0036,-0.0007,-0.0263,-0.0262,0.0095,2.0,2.0,2.0,0.0,0.0967,0.0007,0.0383,0,8
2.26,1.9434,1.9421,1.9557,-0.0033,0.0032,-0.0001,-0.0533,-0.0538,0.0216,2.0,2.0,2.0,0.0,0.0923,0.0001,0.0787,0,12
2.28,1.9465,1.9453,1.9567,-0.0021,0.002,-0.0007,-0.0327,-0.033,0.0087,2.0,2.0,2.0,0.0,0.0878,0.0007,0.0473,0,9
2.3,1.9497,1.9486,1.9577,-0.0003,0.0002,-0.0001,-0.0319,-0.0323,0.0091,2.0,2.0,2.0,0.0,0.0835,0.0001,0.0463,0,10
2.32,1.9528,1.9517,1.9585,0.0002,-0.0003,-0.0003,-0.0316,-0.0322,0.0073,2.0,2.0,2.0,0.0,0.0792,0.0003,0.0457,0,11
2.34,1.9558,1.9548,1.9594,0.0005,-0.0006,-0.0,-0.0331,-0.0337,0.0075,2.0,2.0,2.0,0.0,0.0751,0.0,0.0479,0,10
2.36,1.9587,1.9577,1.9599,0.001,-0.001,-0.0006,0.0026,0.0027,0.022,2.0,2.0,2.0,0.0,0.0715,0.0006,0.0223,0,5
2.38,1.9613,1.9604,1.9605,0.0018,-0.0019,-0.0005,-0.0266,-0.0275,0.0117,2.0,2.0,2.0,0.0,0.068,0.0005,0.04,0,15
2.4,1.9638,1.963,1.9612,0.0016,-0.0017,-0.0003,-0.0282,-0.0292,0.0097,2.0,2.0,2.0,0.0,0.0647,0.0003,0.0417,0,9
2.42,1.966,1.9653,1.9614,0.0021,-0.0022,-0.001,-0.0231,-0.024,0.0153,2.0,2.0,2.0,0.0,0.0621,0.001,0.0366,0,10
2.44,1.968,1.9673,1.9615,0.0034,-0.0034,-0.0006,0.0008,0.0006,0.0205,2.0,2.0,2.0,0.0,0.0598,0.0006,0.0205,0,6
2.46,1.9698,1.9691,1.9619,0.0031,-0.0031,-0.0008,-0.001,-0.0013,0.014,2.0,2.0,2.0,0.0,0.0576,0.0008,0.0141,0,7
2.48,1.9713,1.9707,1.9621,0.002,-0.002,-0.001,0.0035,0.0033,0.0193,2.0,2.0,2.0,0.0,0.0558,0.001,0.0199,0,6
2.5,1.9726,1.9721,1.9624,0.0029,-0.0029,-0.0008,-0.0096,-0.0107,0.0172,2.0,2.0,2.0,0.0,0.0543,0.0008,0.0225,0,8
2.52,1.9737,1.9732,1.9629,0.0023,-0.0023,-0.0007,-0.0055,-0.0065,0.0133,2.0,2.0,2.0,0.0,0.0528,0.0007,0.0158,0,8
2.54,1.9745,1.9741,1.9635,0.0029,-0.0029,-0.0005,-0.0025,-0.0033,0.01,2.0,2.0,2.0,0.0,0.0515,0.0005,0.0108,0,9
2.56,1.9752,1.9749,1.9639,0.0029,-0.0028,-0.0006,0.0007,0.0,0.0119,2.0,2.0,2.0,0.0,0.0505,0.0006,0.0119,0,9
2.58,1.9758,1.9754,1.9642,0.0025,-0.0024,-0.0006,0.0021,0.0012,0.0249,2.0,2.0,2.0,0.0,0.0497,0.0006,0.025,0,13
2.6,1.9761,1.9758,1.965,0.0021,-0.0021,-0.0004,0.0057,0.005,0.0138,2.0,2.0,2.0,0.0,0.0488,0.0004,0.0158,0,14
2.62,1.9764,1.9761,1.9659,0.0023,-0.0022,-0.0003,0.0101,0.0095,0.0045,2.0,2.0,2.0,0.0,0.0479,0.0003,0.0146,0,8
2.64,1.9765,1.9762,1.9667,0.0019,-0.0019,-0.0001,0.0092,0.0088,0.0056,2.0,2.0,2.0,0.0,0.0472,0.0001,0.0139,0,11
2.66,1.9765,1.9763,1.9674,0.0009,-0.0009,-0.0,0.0137,0.013,0.0152,2.0,2.0,2.0,0.0,0.0467,0.0,0.0242,0,14
2.68,1.9764,1.9763,1.968,0.0011,-0.0011,-0.0003,0.0157,0.0151,0.0084,2.0,2.0,2.0,0.0,0.0463,0.0003,0.0234,0,8
2.7,1.9763,1.9762,1.9683,0.0009,-0.0009,-0.0004,0.0126,0.012,0.0095,2.0,2.0,2.0,0.0,0.0461,0.0004,0.0198,0,8
2.72,1.9762,1.9761,1.9683,-0.0001,0.0001,-0.0005,0.0136,0.013,0.0144,2.0,2.0,2.0,0.0,0.0463,0.0005,0.0237,0,8
2.74,1.976,1.976,1.9686,0.0003,-0.0003,-0.0002,0.0141,0.0135,0.0105,2.0,2.0,2.0,0.0,0.0463,0.0002,0.0221,0,8
2.76,1.9758,1.9758,1.9691,0.0002,-0.0002,-0.0001,0.0143,0.0137,0.006,2.0,2.0,2.0,0.0,0.0461,0.0001,0.0207,0,8
2.78,1.9757,1.9757,1.9697,-0.0002,0.0003,0.0001,0.0141,0.0136,0.0046,2.0,2.0,2.0,0.0,0.0458,-0.0001,0.0202,0,8
2.8,1.9756,1.9756,1.9704,-0.0006,0.0006,0.0002,0.0137,0.0132,0.0036,2.0,2.0,2.0,0.0,0.0455,-0.0002,0.0193,0,8
2.82,1.9755,1.9755,1.971,-0.0007,0.0008,0.0003,0.013,0.0126,0.003,2.0,2.0,2.0,0.0,0.0452,-0.0003,0.0183,0,8
2.84,1.9754,1.9755,1.9717,-0.0008,0.0008,0.0003,0.0121,0.0118,0.0031,2.0,2.0,2.0,0.0,0.0448,-0.0003,0.0172,0,8
2.86,1.9754,1.9755,1.9723,-0.0009,0.001,0.0003,0.0112,0.0109,0.0036,2.0,2.0,2.0,0.0,0.0444,-0.0003,0.016,0,8
2.88,1.9755,1.9755,1.9728,-0.001,0.0011,0.0003,0.0101,0.0099,0.0043,2.0,2.0,2.0,0.0,0.0441,-0.0003,0.0147,0,8
2.9,1.9756,1.9757,1.9733,-0.0011,0.0011,0.0003,0.0089,0.0088,0.0051,2.0,2.0,2.0,0.0,0.0436,-0.0003,0.0135,0,8
2.92,1.9757,1.9758,1.9737,-0.0011,0.0012,0.0002,0.0077,0.0076,0.0059,2.0,2.0,2.0,0.0,0.0432,-0.0002,0.0123,0,8
2.94,1.9759,1.976,1.974,-0.0011,0.0012,0.0001,0.0065,0.0065,0.0065,2.0,2.0,2.0,0.0,0.0428,-0.0001,0.0112,0,8
2.96,1.9762,1.9763,1.9743,-0.0011,0.0011,0.0001,0.0053,0.0054,0.0068,2.0,2.0,2.0,0.0,0.0423,-0.0001,0.0102,0,8
2.98,1.9765,1.9766,1.9747,-0.001,0.0011,0.0001,0.0042,0.0043,0.0069,2.0,2.0,2.0,0.0,0.0417,-0.0001,0.0092,0,8
3.0,1.9769,1.977,1.975,-0.001,0.001,0.0001,0.0031,0.0033,0.0067,2.0,2.0,2.0,0.0,0.0411,-0.0001,0.0081,0,8
3.02,1.9773,1.9774,1.9753,-0.0009,0.0009,0.0001,0.0022,0.0023,0.0063,2.0,2.0,2.0,0.0,0.0405,-0.0001,0.007,0,8
3.04,1.9778,1.9778,1.9757,-0.0008,0.0008,0.0001,0.0013,0.0015,0.0056,2.0,2.0,2.0,0.0,0.0398,-0.0001,0.0059,0,8
3.06,1.9782,1.9783,1.9761,-0.0007,0.0008,0.0001,0.0005,0.0007,0.0049,2.0,2.0,2.0,0.0,0.039,-0.0001,0.0049,0,8
3.08,1.9787,1.9787,1.9765,-0.0007,0.0007,0.0002,-0.0002,0.0,0.0041,2.0,2.0,2.0,0.0,0.0382,-0.0002,0.0041,0,8
3.1,1.9792,1.9792,1.977,-0.0006,0.0006,0.0002,-0.0009,-0.0007,0.0032,2.0,2.0,2.0,0.0,0.0373,-0.0002,0.0034,0,8
3.12,1.9798,1.9798,1.9775,-0.0005,0.0005,0.0002,-0.0014,-0.0011,0.0028,2.0,2.0,2.0,0.0,0.0364,-0.0002,0.0033,0,8
3.14,1.9803,1.9803,1.978,-0.0004,0.0004,0.0003,-0.0018,-0.0015,0.0021,2.0,2.0,2.0,0.0,0.0355,-0.0003,0.0032,0,8
3.16,1.9808,1.9808,1.9785,-0.0004,0.0004,0.0003,-0.0021,-0.0019,0.0015,2.0,2.0,2.0,0.0,0.0346,-0.0003,0.0032,0,8
3.18,1.9814,1.9813,1.9791,-0.0003,0.0003,0.0004,-0.0024,-0.0021,0.001,2.0,2.0,2.0,0.0,0.0337,-0.0004,0.0034,0,8
3.2,1.9819,1.9819,1.9797,-0.0003,0.0002,0.0004,-0.0026,-0.0023,0.0007,2.0,2.0,2.0,0.0,0.0327,-0.0004,0.0035,0,8
3.22,1.9824,1.9824,1.9802,-0.0002,0.0002,0.0004,-0.0027,-0.0025,0.0003,2.0,2.0,2.0,0.0,0.0318,-0.0004,0.0037,0,8
3.24,1.983,1.9829,1.9808,-0.0002,0.0001,0.0004,-0.0028,-0.0026,0.0001,2.0,2.0,2.0,0.0,0.0308,-0.0004,0.0038,0,8
3.26,1.9835,1.9834,1.9814,-0.0001,0.0001,0.0005,-0.0028,-0.0026,-0.0001,2.0,2.0,2.0,0.0,0.0299,-0.0005,0.0038,0,8
3.28,1.984,1.9839,1.9819,-0.0001,0.0001,0.0005,-0.0028,-0.0026,-0.0003,2.0,2.0,2.0,0.0,0.029,-0.0005,0.0038,0,8
3.3,1.9845,1.9844,1.9825,-0.0,0.0,0.0005,-0.0027,-0.0026,-0.0004,2.0,2.0,2.0,0.0,0.0281,-0.0005,0.0038,0,8
3.32,1.9849,1.9849,1.983,-0.0,0.0,0.0004,-0.0027,-0.0025,-0.0005,2.0,2.0,2.0,0.0,0.0273,-0.0004,0.0037,0,8
3.34,1.9854,1.9853,1.9836,-0.0,-0.0,0.0004,-0.0026,-0.0025,-0.0006,2.0,2.0,2.0,0.0,0.0264,-0.0004,0.0036,0,8
3.36,1.9858,1.9858,1.9841,0.0,-0.0,0.0004,-0.0024,-0.0024,-0.0007,2.0,2.0,2.0,0.0,0.0256,-0.0004,0.0035,0,8
3.38,1.9863,1.9862,1.9846,0.0,-0.0,0.0004,-0.0023,-0.0023,-0.0008,2.0,2.0,2.0,0.0,0.0248,-0.0004,0.0033,0,8
3.4,1.9867,1.9866,1.9851,0.0,-0.0,0.0004,-0.0022,-0.0021,-0.0009,2.0,2.0,2.0,0.0,0.024,-0.0004,0.0032,0,8
3.42,1.9871,1.987,1.9856,0.0,-0.0,0.0004,-0.002,-0.002,-0.001,2.0,2.0,2.0,0.0,0.0233,-0.0004,0.003,0,8
3.44,1.9874,1.9874,1.9861,0.0,-0.0,0.0004,-0.0019,-0.0019,-0.0011,2.0,2.0,2.0,0.0,0.0226,-0.0004,0.0029,0,8
3.46,1.9878,1.9877,1.9866,0.0,-0.0,0.0003,-0.0018,-0.0018,-0.0012,2.0,2.0,2.0,0.0,0.0219,-0.0003,0.0028,0,8
3.48,1.9882,1.9881,1.9871,0.0,-0.0,0.0003,-0.0017,-0.0017,-0.0013,2.0,2.0,2.0,0.0,0.0212,-0.0003,0.0027,0,8
3.5,1.9885,1.9884,1.9876,0.0,-0.0,0.0003,-0.0016,-0.0016,-0.0014,2.0,2.0,2.0,0.0,0.0205,-0.0003,0.0027,0,8
3.52,1.9888,1.9888,1.988,0.0,-0.0,0.0003,-0.0015,-0.0015,-0.0015,2.0,2.0,2.0,0.0,0.0199,-0.0003,0.0026,0,8
3.54,1.9891,1.9891,1.9885,0.0,-0.0,0.0003,-0.0014,-0.0015,-0.0016,2.0,2.0,2.0,0.0,0.0192,-0.0003,0.0026,0,8
3.56,1.9895,1.9894,1.9889,0.0,-0.0,0.0003,-0.0013,-0.0014,-0.0017,2.0,2.0,2.0,0.0,0.0186,-0.0003,0.0025,0,8
3.58,1.9897,1.9897,1.9894,-0.0,0.0,0.0002,-0.0013,-0.0013,-0.0018,2.0,2.0,2.0,0.0,0.018,-0.0002,0.0025,0,8
3.6,1.99,1.99,1.9898,-0.0,0.0,0.0002,-0.0012,-0.0013,-0.0018,2.0,2.0,2.0,0.0,0.0174,-0.0002,0.0026,0,8
3.62,1.9903,1.9903,1.9902,-0.0,0.0,0.0002,-0.0012,-0.0012,-0.0019,2.0,2.0,2.0,0.0,0.0169,-0.0002,0.0026,0,8
3.64,1.9906,1.9905,1.9906,-0.0,0.0,0.0002,-0.0012,-0.0012,-0.002,2.0,2.0,2.0,0.0,0.0163,-0.0002,0.0026,0,8
3.66,1.9908,1.9908,1.991,-0.0001,0.0001,0.0002,-0.0012,-0.0012,-0.0021,2.0,2.0,2.0,0.0,0.0158,-0.0002,0.0027,0,8
3.68,1.9911,1.9911,1.9914,-0.0001,0.0001,0.0002,-0.0012,-0.0012,-0.0022,2.0,2.0,2.0,0.0,0.0152,-0.0002,0.0027,0,8
3.7,1.9914,1.9913,1.9918,-0.0001,0.0001,0.0002,-0.0012,-0.0012,-0.0022,2.0,2.0,2.0,0.0,0.0147,-0.0002,0.0028,0,8
3.72,1.9916,1.9916,1.9922,-0.0001,0.0001,0.0002,-0.0012,-0.0013,-0.0023,2.0,2.0,2.0,0.0,0.0142,-0.0002,0.0029,0,8
3.74,1.9919,1.9918,1.9926,-0.0001,0.0001,0.0001,-0.0013,-0.0013,-0.0024,2.0,2.0,2.0,0.0,0.0137,-0.0001,0.003,0,8
3.76,1.9921,1.9921,1.993,-0.0001,0.0001,0.0001,-0.0013,-0.0013,-0.0024,2.0,2.0,2.0,0.0,0.0132,-0.0001,0.0031,0,8
3.78,1.9923,1.9923,1.9933,-0.0001,0.0001,0.0001,-0.0014,-0.0014,-0.0025,2.0,2.0,2.0,0.0,0.0127,-0.0001,0.0032,0,8
3.8,1.9926,1.9926,1.9937,-0.0001,0.0001,0.0001,-0.0014,-0.0014,-0.0026,2.0,2.0,2.0,0.0,0.0122,-0.0001,0.0033,0,8
3.82,1.9928,1.9928,1.9941,-0.0001,0.0001,0.0001,-0.0015,-0.0015,-0.0026,2.0,2.0,2.0,0.0,0.0118,-0.0001,0.0034,0,8
3.84,1.9931,1.993,1.9944,-0.0001,0.0001,0.0001,-0.0015,-0.0016,-0.0027,2.0,2.0,2.0,0.0,0.0113,-0.0001,0.0035,0,8
3.86,1.9933,1.9933,1.9948,-0.0001,0.0001,0.0001,-0.0016,-0.0016,-0.0028,2.0,2.0,2.0,0.0,0.0109,-0.0001,0.0036,0,8
3.88,1.9935,1.9935,1.9951,-0.0001,0.0001,0.0001,-0.0017,-0.0017,-0.0028,2.0,2.0,2.0,0.0,0.0104,-0.0001,0.0037,0,8
3.9,1.9937,1.9937,1.9954,-0.0001,0.0001,0.0001,-0.0018,-0.0018,-0.0029,2.0,2.0,2.0,0.0,0.01,-0.0001,0.0038,0,8
3.92,1.994,1.994,1.9958,-0.0001,0.0001,0.0001,-0.0018,-0.0018,-0.0029,2.0,2.0,2.0,0.0,0.0095,-0.0001,0.0039,0,8
3.94,1.9942,1.9942,1.9961,-0.0001,0.0001,0.0001,-0.0019,-0.0019,-0.003,2.0,2.0,2.0,0.0,0.0091,-0.0001,0.004,0,8
3.96,1.9944,1.9944,1.9964,-0.0001,0.0001,0.0001,-0.0019,-0.002,-0.0031,2.0,2.0,2.0,0.0,0.0087,-0.0001,0.0041,0,8
3.98,1.9946,1.9946,1.9967,-0.0001,0.0001,0.0001,-0.002,-0.002,-0.0031,2.0,2.0,2.0,0.0,0.0083,-0.0001,0.0042,0,8
4.0,1.9949,1.9949,1.997,-0.0001,0.0001,0.0001,-0.002,-0.0021,-0.0032,2.0,2.0,2.0,0.0,0.0079,-0.0001,0.0043,0,8
4.02,1.9951,1.9951,1.9973,-0.0001,0.0001,0.0001,-0.0021,-0.0021,-0.0032,2.0,2.0,2.0,0.0,0.0075,-0.0001,0.0044,0,8
4.04,1.9953,1.9953,1.9976,-0.0001,0.0001,0.0,-0.0021,-0.0022,-0.0033,2.0,2.0,2.0,0.0,0.0071,-0.0,0.0045,0,8
4.06,1.9955,1.9955,1.9979,-0.0001,0.0001,0.0,-0.0022,-0.0022,-0.0033,2.0,2.0,2.0,0.0,0.0067,-0.0,0.0046,0,8
4.08,1.9957,1.9957,1.9981,-0.0001,0.0001,0.0,-0.0022,-0.0022,-0.0034,2.0,2.0,2.0,0.0,0.0063,-0.0,0.0046,0,8
4.1,1.9959,1.9959,1.9984,-0.0001,0.0001,0.0,-0.0023,-0.0023,-0.0034,2.0,2.0,2.0,0.0,0.006,-0.0,0.0047,0,8
4.12,1.9961,1.9961,1.9987,-0.0001,0.0001,0.0,-0.0023,-0.0023,-0.0035,2.0,2.0,2.0,0.0,0.0056,-0.0,0.0048,0,8
4.14,1.9963,1.9963,1.999,-0.0001,0.0001,0.0,-0.0023,-0.0023,-0.0035,2.0,2.0,2.0,0.0,0.0053,-0.0,0.0048,0,8
4.16,1.9965,1.9965,1.9992,-0.0001,0.0001,0.0,-0.0024,-0.0024,-0.0036,2.0,2.0,2.0,0.0,0.005,-0.0,0.0049,0,8
4.18,1.9967,1.9967,1.9995,-0.0001,0.0001,0.0,-0.0024,-0.0024,-0.0036,2.0,2.0,2.0,0.0,0.0047,-0.0,0.005,0,8
4.2,1.9969,1.9969,1.9997,-0.0001,0.0001,0.0,-0.0024,-0.0024,-0.0037,2.0,2.0,2.0,0.0,0.0044,-0.0,0.005,0,8
4.22,1.9971,1.9971,2.0,-0.0001,0.0001,0.0,-0.0024,-0.0025,-0.0037,2.0,2.0,2.0,0.0,0.0041,-0.0,0.0051,0,8
4.24,1.9973,1.9973,2.0002,-0.0001,0.0001,0.0,-0.0025,-0.0025,-0.0038,2.0,2.0,2.0,0.0,0.0039,-0.0,0.0051,0,8
4.26,1.9975,1.9975,2.0005,-0.0001,0.0001,0.0,-0.0025,-0.0025,-0.0038,2.0,2.0,2.0,0.0,0.0036,-0.0,0.0052,0,8
4.28,1.9976,1.9976,2.0007,-0.0001,0.0001,0.0,-0.0025,-0.0025,-0.0038,2.0,2.0,2.0,0.0,0.0034,-0.0,0.0052,0,8
4.3,1.9978,1.9978,2.0009,-0.0001,0.0,0.0,-0.0025,-0.0026,-0.0039,2.0,2.0,2.0,0.0,0.0032,-0.0,0.0053,0,8
4.32,1.998,1.998,2.0012,-0.0001,0.0001,0.0,-0.0025,-0.0026,-0.0039,2.0,2.0,2.0,0.0,0.0031,-0.0,0.0053,0,8
4.34,1.9982,1.9982,2.0014,-0.0,0.0,0.0,-0.0026,-0.0026,-0.004,2.0,2.0,2.0,0.0,0.003,-0.0,0.0054,0,8
4.36,1.9983,1.9983,2.0016,-0.0,0.0,0.0,-0.0026,-0.0026,-0.004,2.0,2.0,2.0,0.0,0.0029,-0.0,0.0054,0,8
4.38,1.9985,1.9985,2.0018,-0.0,0.0,0.0,-0.0026,-0.0026,-0.004,2.0,2.0,2.0,0.0,0.0028,-0.0,0.0055,0,8
4.4,1.9986,1.9987,2.002,-0.0,0.0,0.0,-0.0026,-0.0026,-0.0041,2.0,2.0,2.0,0.0,0.0028,-0.0,0.0055,0,8
4.42,1.9988,1.9988,2.0022,-0.0,0.0,0.0,-0.0026,-0.0027,-0.0041,2.0,2.0,2.0,0.0,0.0028,-0.0,0.0056,0,8
4.44,1.999,1.999,2.0024,-0.0,0.0,0.0,-0.0026,-0.0027,-0.0042,2.0,2.0,2.0,0.0,0.0028,-0.0,0.0056,0,8
4.46,1.9991,1.9991,2.0026,-0.0,0.0,0.0,-0.0027,-0.0027,-0.0042,2.0,2.0,2.0,0.0,0.0029,-0.0,0.0056,0,8
4.48,1.9993,1.9993,2.0028,-0.0,0.0,0.0,-0.0027,-0.0027,-0.0042,2.0,2.0,2.0,0.0,0.003,-0.0,0.0057,0,8
4.5,1.9994,1.9994,2.003,-0.0,0.0,0.0,-0.0027,-0.0027,-0.0043,2.0,2.0,2.0,0.0,0.0031,-0.0,0.0057,0,8
4.52,1.9996,1.9996,2.0032,-0.0,0.0,0.0,-0.0027,-0.0027,-0.0043,2.0,2.0,2.0,0.0,0.0033,-0.0,0.0058,0,8
4.54,1.9997,1.9997,2.0034,-0.0,0.0,0.0,-0.0027,-0.0027,-0.0043,2.0,2.0,2.0,0.0,0.0034,-0.0,0.0058,0,8
4.56,1.9998,1.9999,2.0036,-0.0,0.0,0.0,-0.0027,-0.0028,-0.0043,2.0,2.0,2.0,0.0,0.0036,-0.0,0.0058,0,8
4.58,2.0,2.0,2.0038,-0.0,0.0,0.0,-0.0027,-0.0028,-0.0044,2.0,2.0,2.0,0.0,0.0038,-0.0,0.0059,0,8
4.6,2.0001,2.0001,2.0039,-0.0,0.0,0.0,-0.0028,-0.0028,-0.0044,2.0,2.0,2.0,0.0,0.0039,-0.0,0.0059,0,8
4.62,2.0002,2.0003,2.0041,-0.0,0.0,0.0,-0.0028,-0.0028,-0.0044,2.0,2.0,2.0,0.0,0.0041,-0.0,0.0059,0,8
4.64,2.0004,2.0004,2.0043,-0.0,0.0,0.0,-0.0028,-0.0028,-0.0045,2.0,2.0,2.0,0.0,0.0043,-0.0,0.006,0,8
4.66,2.0005,2.0005,2.0044,-0.0,0.0,0.0,-0.0028,-0.0028,-0.0045,2.0,2.0,2.0,0.0,0.0045,-0.0,0.006,0,8
4.68,2.0006,2.0007,2.0046,-0.0,0.0,0.0,-0.0028,-0.0029,-0.0045,2.0,2.0,2.0,0.0,0.0047,-0.0,0.0061,0,8
4.7,2.0008,2.0008,2.0048,-0.0,0.0,0.0,-0.0029,-0.0029,-0.0045,2.0,2.0,2.0,0.0,0.0049,-0.0,0.0061,0,8
4.72,2.0009,2.0009,2.0049,-0.0,0.0,0.0,-0.0029,-0.0029,-0.0046,2.0,2.0,2.0,0.0,0.0051,-0.0,0.0061,0,8
4.74,2.001,2.001,2.0051,-0.0,0.0,0.0,-0.0029,-0.0029,-0.0046,2.0,2.0,2.0,0.0,0.0053,-0.0,0.0062,0,8
4.76,2.0011,2.0012,2.0052,-0.0,0.0,0.0,-0.0029,-0.0029,-0.0046,2.0,2.0,2.0,0.0,0.0055,-0.0,0.0062,0,8
4.78,2.0012,2.0013,2.0054,-0.0,0.0,0.0,-0.0029,-0.0029,-0.0046,2.0,2.0,2.0,0.0,0.0057,-0.0,0.0062,0,8
4.8,2.0014,2.0014,2.0055,-0.0,0.0,0.0,-0.0029,-0.003,-0.0047,2.0,2.0,2.0,0.0,0.0059,-0.0,0.0063,0,8
4.82,2.0015,2.0015,2.0057,-0.0,0.0,0.0,-0.0029,-0.003,-0.0047,2.0,2.0,2.0,0.0,0.006,-0.0,0.0063,0,8
4.84,2.0016,2.0016,2.0058,-0.0,0.0,0.0,-0.003,-0.003,-0.0047,2.0,2.0,2.0,0.0,0.0062,-0.0,0.0063,0,8
4.86,2.0017,2.0017,2.0059,-0.0,0.0,0.0,-0.003,-0.003,-0.0047,2.0,2.0,2.0,0.0,0.0064,-0.0,0.0064,0,8
4.88,2.0018,2.0018,2.0061,-0.0,0.0,0.0,-0.003,-0.003,-0.0048,2.0,2.0,2.0,0.0,0.0066,-0.0,0.0064,0,8
4.9,2.0019,2.0019,2.0062,-0.0,0.0,0.0,-0.003,-0.003,-0.0048,2.0,2.0,2.0,0.0,0.0068,-0.0,0.0064,0,8
4.92,2.002,2.0021,2.0063,-0.0,0.0,0.0,-0.003,-0.0031,-0.0048,2.0,2.0,2.0,0.0,0.007,-0.0,0.0064,0,8
4.94,2.0021,2.0022,2.0065,-0.0,0.0,0.0,-0.003,-0.0031,-0.0048,2.0,2.0,2.0,0.0,0.0071,-0.0,0.0065,0,8
4.96,2.0022,2.0023,2.0066,-0.0,0.0,0.0,-0.0031,-0.0031,-0.0048,2.0,2.0,2.0,0.0,0.0073,-0.0,0.0065,0,8
4.98,2.0023,2.0024,2.0067,-0.0,0.0,0.0,-0.0031,-0.0031,-0.0049,2.0,2.0,2.0,0.0,0.0075,-0.0,0.0065,0,8
5.0,2.0024,2.0025,2.0068,-0.0,0.0,0.0,-0.0031,-0.0031,-0.0049,2.0,2.0,2.0,0.0,0.0076,-0.0,0.0065,0,8
5.02,2.0025,2.0026,2.0069,-0.0,0.0,0.0,-0.0031,-0.0031,-0.0049,2.0,2.0,2.0,0.0,0.0078,-0.0,0.0066,0,8
5.04,2.0026,2.0027,2.0071,-0.0,0.0,0.0,-0.0031,-0.0031,-0.0049,2.0,2.0,2.0,0.0,0.008,-0.0,0.0066,0,8
5.06,2.0027,2.0028,2.0072,-0.0,0.0,0.0,-0.0031,-0.0031,-0.0049,2.0,2.0,2.0,0.0,0.0081,-0.0,0.0066,0,8
5.08,2.0028,2.0028,2.0073,-0.0,0.0,0.0,-0.0031,-0.0032,-0.0049,2.0,2.0,2.0,0.0,0.0083,-0.0,0.0066,0,8
5.1,2.0029,2.0029,2.0074,-0.0,0.0,0.0,-0.0031,-0.0032,-0.0049,2.0,2.0,2.0,0.0,0.0085,-0.0,0.0066,0,8
5.12,2.003,2.003,2.0075,-0.0,0.0,0.0,-0.0031,-0.0032,-0.005,2.0,2.0,2.0,0.0,0.0086,-0.0,0.0067,0,8
5.14,2.0031,2.0031,2.0076,-0.0,0.0,0.0,-0.0032,-0.0032,-0.005,2.0,2.0,2.0,0.0,0.0088,-0.0,0.0067,0,8
5.16,2.0032,2.0032,2.0077,-0.0,0.0,0.0,-0.0032,-0.0032,-0.005,2.0,2.0,2.0,0.0,0.0089,-0.0,0.0067,0,8
5.18,2.0032,2.0033,2.0078,-0.0,0.0,0.0,-0.0032,-0.0032,-0.005,2.0,2.0,2.0,0.0,0.0091,-0.0,0.0067,0,8
5.2,2.0033,2.0034,2.0079,-0.0,0.0,0.0,-0.0032,-0.0032,-0.005,2.0,2.0,2.0,0.0,0.0092,-0.0,0.0068,0,8
5.22,2.0034,2.0035,2.008,-0.0,0.0,0.0,-0.0032,-0.0032,-0.005,2.0,2.0,2.0,0.0,0.0093,-0.0,0.0068,0,8
5.24,2.0035,2.0035,2.0081,-0.0,0.0,0.0,-0.0032,-0.0032,-0.0051,2.0,2.0,2.0,0.0,0.0095,-0.0,0.0068,0,8
5.26,2.0036,2.0036,2.0082,-0.0,0.0,0.0,-0.0032,-0.0032,-0.0051,2.0,2.0,2.0,0.0,0.0096,-0.0,0.0068,0,8
5.28,2.0037,2.0037,2.0083,-0.0,0.0,0.0,-0.0032,-0.0033,-0.0051,2.0,2.0,2.0,0.0,0.0098,-0.0,0.0068,0,8
5.3,2.0037,2.0038,2.0084,-0.0,0.0,0.0,-0.0032,-0.0033,-0.0051,2.0,2.0,2.0,0.0,0.0099,-0.0,0.0069,0,8
5.32,2.0038,2.0039,2.0084,-0.0,0.0,0.0,-0.0032,-0.0033,-0.0051,2.0,2.0,2.0,0.0,0.01,-0.0,0.0069,0,8
5.34,2.0039,2.0039,2.0085,-0.0,0.0,0.0,-0.0032,-0.0033,-0.0051,2.0,2.0,2.0,0.0,0.0102,-0.0,0.0069,0,8
5.36,2.004,2.004,2.0086,-0.0,0.0,0.0,-0.0033,-0.0033,-0.0051,2.0,2.0,2.0,0.0,0.0103,-0.0,0.0069,0,8
5.38,2.004,2.0041,2.0087,-0.0,0.0,0.0,-0.0033,-0.0033,-0.0051,2.0,2.0,2.0,0.0,0.0104,-0.0,0.0069,0,8
5.4,2.0041,2.0041,2.0088,-0.0,0.0,0.0,-0.0033,-0.0033,-0.0052,2.0,2.0,2.0,0.0,0.0105,-0.0,0.0069,0,8
5.42,2.0042,2.0042,2.0088,-0.0,0.0,0.0,-0.0033,-0.0033,-0.0052,2.0,2.0,2.0,0.0,0.0106,-0.0,0.007,0,8
5.44,2.0042,2.0043,2.0089,-0.0,0.0,0.0,-0.0033,-0.0033,-0.0052,2.0,2.0,2.0,0.0,0.0108,-0.0,0.007,0,8
5.46,2.0043,2.0044,2.009,-0.0,0.0,0.0,-0.0033,-0.0033,-0.0052,2.0,2.0,2.0,0.0,0.0109,-0.0,0.007,0,8
5.48,2.0044,2.0044,2.0091,-0.0,0.0,0.0,-0.0033,-0.0033,-0.0052,2.0,2.0,2.0,0.0,0.011,-0.0,0.007,0,8
5.5,2.0044,2.0045,2.0091,-0.0,0.0,0.0,-0.0033,-0.0033,-0.0052,2.0,2.0,2.0,0.0,0.0111,-0.0,0.007,0,8
5.52,2.0045,2.0045,2.0092,-0.0,0.0,0.0,-0.0033,-0.0033,-0.0052,2.0,2.0,2.0,0.0,0.0112,-0.0,0.007,0,8
5.54,2.0046,2.0046,2.0093,-0.0,0.0,0.0,-0.0033,-0.0033,-0.0052,2.0,2.0,2.0,0.0,0.0113,-0.0,0.007,0,8
5.56,2.0046,2.0047,2.0093,-0.0,0.0,0.0,-0.0033,-0.0033,-0.0052,2.0,2.0,2.0,0.0,0.0114,-0.0,0.007,0,8
5.58,2.0047,2.0047,2.0094,-0.0,0.0,0.0,-0.0033,-0.0034,-0.0052,2.0,2.0,2.0,0.0,0.0115,-0.0,0.007,0,8
5.6,2.0047,2.0048,2.0095,-0.0,0.0,0.0,-0.0033,-0.0034,-0.0052,2.0,2.0,2.0,0.0,0.0116,-0.0,0.007,0,8
5.62,2.0048,2.0049,2.0095,-0.0,0.0,0.0,-0.0033,-0.0034,-0.0052,2.0,2.0,2.0,0.0,0.0117,-0.0,0.0071,0,8
5.64,2.0049,2.0049,2.0096,-0.0,0.0,0.0,-0.0033,-0.0034,-0.0052,2.0,2.0,2.0,0.0,0.0118,-0.0,0.0071,0,8
5.66,2.0049,2.005,2.0096,-0.0,0.0,0.0,-0.0033,-0.0034,-0.0053,2.0,2.0,2.0,0.0,0.0119,-0.0,0.0071,0,8
5.68,2.005,2.005,2.0097,-0.0,0.0,0.0,-0.0034,-0.0034,-0.0053,2.0,2.0,2.0,0.0,0.012,-0.0,0.0071,0,8
5.7,2.005,2.0051,2.0098,-0.0,0.0,0.0,-0.0034,-0.0034,-0.0053,2.0,2.0,2.0,0.0,0.0121,-0.0,0.0071,0,8
5.72,2.0051,2.0051,2.0098,-0.0,0.0,0.0,-0.0034,-0.0034,-0.0053,2.0,2.0,2.0,0.0,0.0122,-0.0,0.0071,0,8
5.74,2.0051,2.0052,2.0099,-0.0,0.0,0.0,-0.0034,-0.0034,-0.0053,2.0,2.0,2.0,0.0,0.0123,-0.0,0.0071,0,8
5.76,2.0052,2.0052,2.0099,-0.0,0.0,0.0,-0.0034,-0.0034,-0.0053,2.0,2.0,2.0,0.0,0.0124,-0.0,0.0071,0,8
5.78,2.0052,2.0053,2.01,-0.0,0.0,0.0,-0.0034,-0.0034,-0.0053,2.0,2.0,2.0,0.0,0.0124,-0.0,0.0071,0,8
5.8,2.0053,2.0053,2.01,-0.0,0.0,0.0,-0.0034,-0.0034,-0.0053,2.0,2.0,2.0,0.0,0.0125,-0.0,0.0072,0,8
5.82,2.0053,2.0054,2.0101,-0.0,0.0,0.0,-0.0034,-0.0034,-0.0053,2.0,2.0,2.0,0.0,0.0126,-0.0,0.0072,0,8
5.84,2.0054,2.0054,2.0101,-0.0,0.0,0.0,-0.0034,-0.0034,-0.0053,2.0,2.0,2.0,0.0,0.0127,-0.0,0.0072,0,8
5.86,2.0054,2.0055,2.0102,-0.0,0.0,0.0,-0.0034,-0.0034,-0.0053,2.0,2.0,2.0,0.0,0.0128,-0.0,0.0072,0,8
5.88,2.0055,2.0055,2.0102,-0.0,0.0,0.0,-0.0034,-0.0034,-0.0053,2.0,2.0,2.0,0.0,0.0128,-0.0,0.0072,0,8
5.9,2.0055,2.0056,2.0103,-0.0,0.0,0.0,-0.0034,-0.0034,-0.0053,2.0,2.0,2.0,0.0,0.0129,-0.0,0.0071,0,8
5.92,2.0056,2.0056,2.0103,-0.0,0.0,0.0,-0.0034,-0.0034,-0.0053,2.0,2.0,2.0,0.0,0.013,-0.0,0.0072,0,8
5.94,2.0056,2.0057,2.0103,-0.0,0.0,0.0,-0.0034,-0.0034,-0.0053,2.0,2.0,2.0,0.0,0.0131,-0.0,0.0072,0,8
5.96,2.0056,2.0057,2.0104,-0.0,0.0,0.0,-0.0034,-0.0034,-0.0053,2.0,2.0,2.0,0.0,0.0131,-0.0,0.0072,0,8
5.98,2.0057,2.0057,2.0104,-0.0,0.0,0.0,-0.0034,-0.0034,-0.0053,2.0,2.0,2.0,0.0,0.0132,-0.0,0.0072,0,8
6.0,2.0057,2.0058,2.0105,-0.0,0.0,0.0,-0.0034,-0.0034,-0.0053,2.0,2.0,2.0,0.0,0.0133,-0.0,0.0072,0,8
6.02,2.0058,2.0058,2.0105,-0.0,0.0,0.0,-0.0034,-0.0034,-0.0053,2.0,2.0,2.0,0.0,0.0133,-0.0,0.0072,0,8
6.04,2.0058,2.0059,2.0105,-0.0,0.0,0.0,-0.0034,-0.0034,-0.0053,2.0,2.0,2.0,0.0,0.0134,-0.0,0.0072,0,8
6.06,2.0058,2.0059,2.0106,-0.0,0.0,0.0,-0.0034,-0.0035,-0.0053,2.0,2.0,2.0,0.0,0.0135,-0.0,0.0072,0,8
6.08,2.0059,2.0059,2.0106,-0.0,0.0,0.0,-0.0034,-0.0035,-0.0053,2.0,2.0,2.0,0.0,0.0135,-0.0,0.0072,0,8
6.1,2.0059,2.006,2.0107,-0.0,0.0,0.0,-0.0034,-0.0035,-0.0053,2.0,2.0,2.0,0.0,0.0136,-0.0,0.0072,0,8
6.12,2.006,2.006,2.0107,-0.0,0.0,0.0,-0.0034,-0.0035,-0.0053,2.0,2.0,2.0,0.0,0.0136,-0.0,0.0072,0,8
6.14,2.006,2.0061,2.0107,-0.0,0.0,0.0,-0.0034,-0.0035,-0.0053,2.0,2.0,2.0,0.0,0.0137,-0.0,0.0072,0,8
6.16,2.006,2.0061,2.0108,-0.0,0.0,0.0,-0.0034,-0.0035,-0.0053,2.0,2.0,2.0,0.0,0.0137,-0.0,0.0072,0,8
6.18,2.0061,2.0061,2.0108,-0.0,0.0,0.0,-0.0034,-0.0035,-0.0053,2.0,2.0,2.0,0.0,0.0138,-0.0,0.0072,0,8
6.2,2.0061,2.0062,2.0108,-0.0,0.0,0.0,-0.0034,-0.0035,-0.0053,2.0,2.0,2.0,0.0,0.0139,-0.0,0.0072,0,8
6.22,2.0061,2.0062,2.0108,-0.0,0.0,0.0,-0.0034,-0.0035,-0.0053,2.0,2.0,2.0,0.0,0.0139,-0.0,0.0072,0,8
6.24,2.0062,2.0062,2.0109,-0.0,0.0,0.0,-0.0034,-0.0035,-0.0053,2.0,2.0,2.0,0.0,0.014,-0.0,0.0072,0,8
6.26,2.0062,2.0063,2.0109,-0.0,0.0,0.0,-0.0034,-0.0035,-0.0053,2.0,2.0,2.0,0.0,0.014,-0.0,0.0073,0,8
6.28,2.0062,2.0063,2.0109,-0.0,0.0,0.0,-0.0034,-0.0035,-0.0054,2.0,2.0,2.0,0.0,0.0141,-0.0,0.0073,0,8
6.3,2.0063,2.0063,2.0109,-0.0,0.0,0.0,-0.0034,-0.0035,-0.0053,2.0,2.0,2.0,0.0,0.0141,-0.0,0.0072,0,8
6.32,2.0063,2.0063,2.011,-0.0,0.0,-0.0,-0.0034,-0.0035,-0.0053,2.0,2.0,2.0,0.0,0.0142,0.0,0.0072,0,8
6.34,2.0063,2.0064,2.011,-0.0,0.0,0.0,-0.0034,-0.0035,-0.0053,2.0,2.0,2.0,0.0,0.0142,-0.0,0.0072,0,8
6.36,2.0063,2.0064,2.011,-0.0,0.0,-0.0,-0.0034,-0.0035,-0.0053,2.0,2.0,2.0,0.0,0.0142,0.0,0.0072,0,8
6.38,2.0064,2.0064,2.011,-0.0,0.0,0.0,-0.0034,-0.0035,-0.0053,2.0,2.0,2.0,0.0,0.0143,-0.0,0.0072,0,8
6.4,2.0064,2.0065,2.0111,-0.0,0.0,0.0,-0.0034,-0.0035,-0.0053,2.0,2.0,2.0,0.0,0.0143,-0.0,0.0072,0,8
6.42,2.0064,2.0065,2.0111,-0.0,0.0,0.0,-0.0034,-0.0035,-0.0053,2.0,2.0,2.0,0.0,0.0144,-0.0,0.0072,0,8
6.44,2.0065,2.0065,2.0111,-0.0,0.0,0.0,-0.0034,-0.0035,-0.0053,2.0,2.0,2.0,0.0,0.0144,-0.0,0.0072,0,8
6.46,2.0065,2.0065,2.0111,-0.0,0.0,0.0,-0.0034,-0.0035,-0.0053,2.0,2.0,2.0,0.0,0.0144,-0.0,0.0072,0,8
6.48,2.0065,2.0066,2.0112,-0.0,0.0,0.0,-0.0034,-0.0035,-0.0053,2.0,2.0,2.0,0.0,0.0145,-0.0,0.0072,0,8
6.5,2.0065,2.0066,2.0112,-0.0,0.0,0.0,-0.0034,-0.0035,-0.0053,2.0,2.0,2.0,0.0,0.0145,-0.0,0.0072,0,8
6.52,2.0066,2.0066,2.0112,-0.0,0.0,0.0,-0.0034,-0.0035,-0.0053,2.0,2.0,2.0,0.0,0.0146,-0.0,0.0072,0,8
6.54,2.0066,2.0066,2.0112,-0.0,0.0,0.0,-0.0034,-0.0035,-0.0053,2.0,2.0,2.0,0.0,0.0146,-0.0,0.0072,0,8
6.56,2.0066,2.0067,2.0112,-0.0,0.0,0.0,-0.0035,-0.0035,-0.0053,2.0,2.0,2.0,0.0,0.0146,-0.0,0.0072,0,8
6.58,2.0066,2.0067,2.0112,-0.0,0.0,0.0,-0.0035,-0.0035,-0.0053,2.0,2.0,2.0,0.0,0.0147,-0.0,0.0072,0,8
6.6,2.0066,2.0067,2.0113,-0.0,0.0,0.0,-0.0035,-0.0035,-0.0053,2.0,2.0,2.0,0.0,0.0147,-0.0,0.0072,0,8
6.62,2.0067,2.0067,2.0113,-0.0,0.0,0.0,-0.0035,-0.0035,-0.0053,2.0,2.0,2.0,0.0,0.0147,-0.0,0.0072,0,8
6.64,2.0067,2.0068,2.0113,-0.0,0.0,0.0,-0.0035,-0.0035,-0.0053,2.0,2.0,2.0,0.0,0.0148,-0.0,0.0072,0,8
6.66,2.0067,2.0068,2.0113,-0.0,0.0,0.0,-0.0035,-0.0035,-0.0053,2.0,2.0,2.0,0.0,0.0148,-0.0,0.0072,0,8
6.68,2.0067,2.0068,2.0113,-0.0,0.0,0.0,-0.0035,-0.0035,-0.0053,2.0,2.0,2.0,0.0,0.0148,-0.0,0.0072,0,8
6.7,2.0067,2.0068,2.0113,-0.0,0.0,0.0,-0.0025,-0.0025,-0.0037,2.0,2.0,2.0,0.0,0.0148,-0.0,0.0051,0,13
6.72,2.0068,2.0068,2.0113,0.0001,-0.0001,-0.0001,-0.0026,-0.0027,-0.0027,2.0,2.0,2.0,0.0,0.0148,0.0001,0.0046,0,13
6.74,2.0068,2.0069,2.0113,-0.0001,0.0001,-0.0,-0.0026,-0.0027,-0.0036,2.0,2.0,2.0,0.0,0.0149,0.0,0.0052,0,13
6.76,2.0068,2.0069,2.0113,-0.0001,0.0001,-0.0001,-0.0027,-0.0027,-0.0045,2.0,2.0,2.0,0.0,0.0149,0.0001,0.0059,0,13
6.78,2.0068,2.0069,2.0114,-0.0001,0.0001,-0.0,-0.0028,-0.0028,-0.0044,2.0,2.0,2.0,0.0,0.015,0.0,0.0059,0,13
6.8,2.0069,2.0069,2.0114,-0.0,0.0,-0.0001,-0.0037,-0.0037,-0.0059,2.0,2.0,2.0,0.0,0.015,0.0001,0.0079,0,8
6.82,2.0069,2.007,2.0113,-0.0001,0.0001,-0.0002,-0.0036,-0.0037,-0.0036,2.0,2.0,2.0,0.0,0.015,0.0002,0.0063,0,8
6.84,2.0069,2.007,2.0112,0.0,-0.0,-0.0001,-0.0036,-0.0036,-0.0037,2.0,2.0,2.0,0.0,0.0149,0.0001,0.0063,0,8
6.86,2.007,2.007,2.0112,0.0001,-0.0001,-0.0001,-0.0036,-0.0036,-0.0049,2.0,2.0,2.0,0.0,0.015,0.0001,0.007,0,8
6.88,2.007,2.007,2.0112,0.0,-0.0,-0.0,-0.0035,-0.0036,-0.0051,2.0,2.0,2.0,0.0,0.015,0.0,0.0071,0,8
6.9,2.007,2.0071,2.0112,-0.0,0.0,-0.0,-0.0035,-0.0036,-0.005,2.0,2.0,2.0,0.0,0.015,0.0,0.0071,0,8
6.92,2.007,2.0071,2.0112,0.0,-0.0,-0.0,-0.0035,-0.0035,-0.0051,2.0,2.0,2.0,0.0,0.015,0.0,0.0072,0,8
6.94,2.007,2.0071,2.0112,0.0,-0.0,-0.0,-0.0035,-0.0035,-0.0052,2.0,2.0,2.0,0.0,0.015,0.0,0.0072,0,8
6.96,2.007,2.0071,2.0113,0.0,-0.0,-0.0,-0.0035,-0.0035,-0.0052,2.0,2.0,2.0,0.0,0.015,0.0,0.0072,0,8
6.98,2.007,2.0071,2.0113,0.0,-0.0,0.0,-0.0035,-0.0035,-0.0052,2.0,2.0,2.0,0.0,0.0151,-0.0,0.0072,0,8
7.0,2.0071,2.0071,2.0113,0.0,-0.0,0.0,-0.0035,-0.0035,-0.0052,2.0,2.0,2.0,0.0,0.0151,-0.0,0.0072,0,8
7.02,2.0071,2.0071,2.0113,0.0,-0.0,0.0,-0.0035,-0.0035,-0.0052,2.0,2.0,2.0,0.0,0.0151,-0.0,0.0072,0,8
7.04,2.0071,2.0072,2.0113,-0.0,0.0,0.0,-0.0035,-0.0035,-0.0052,2.0,2.0,2.0,0.0,0.0151,-0.0,0.0072,0,8
7.06,2.0071,2.0072,2.0113,-0.0,0.0,0.0,-0.0035,-0.0035,-0.0052,2.0,2.0,2.0,0.0,0.0151,-0.0,0.0072,0,8
7.08,2.0071,2.0072,2.0113,-0.0,0.0,0.0,-0.0035,-0.0035,-0.0052,2.0,2.0,2.0,0.0,0.0152,-0.0,0.0072,0,8
7.1,2.0071,2.0072,2.0113,-0.0,0.0,0.0,-0.0034,-0.0035,-0.0052,2.0,2.0,2.0,0.0,0.0152,-0.0,0.0071,0,8
7.12,2.0071,2.0072,2.0113,0.0,-0.0,0.0,-0.0034,-0.0035,-0.0052,2.0,2.0,2.0,0.0,0.0152,-0.0,0.0071,0,8
7.14,2.0071,2.0072,2.0113,-0.0,0.0,0.0,-0.0034,-0.0035,-0.0052,2.0,2.0,2.0,0.0,0.0152,-0.0,0.0071,0,8
7.16,2.0072,2.0072,2.0113,-0.0,0.0,0.0,-0.0034,-0.0035,-0.0052,2.0,2.0,2.0,0.0,0.0152,-0.0,0.0071,0,8
7.18,2.0072,2.0072,2.0113,-0.0,0.0,0.0,-0.0035,-0.0035,-0.0052,2.0,2.0,2.0,0.0,0.0152,-0.0,0.0071,0,8
7.2,2.0072,2.0072,2.0113,-0.0,0.0,0.0,-0.0035,-0.0035,-0.0052,2.0,2.0,2.0,0.0,0.0152,-0.0,0.0071,0,8
7.22,2.0072,2.0073,2.0113,-0.0,0.0,0.0,-0.0035,-0.0035,-0.0052,2.0,2.0,2.0,0.0,0.0153,-0.0,0.0071,0,8
7.24,2.0072,2.0073,2.0113,-0.0,0.0,0.0,-0.0035,-0.0035,-0.0052,2.0,2.0,2.0,0.0,0.0153,-0.0,0.0071,0,8
7.26,2.0072,2.0073,2.0113,-0.0,0.0,0.0,-0.0035,-0.0035,-0.0052,2.0,2.0,2.0,0.0,0.0153,-0.0,0.0071,0,8
7.28,2.0072,2.0073,2.0114,-0.0,0.0,0.0,-0.0035,-0.0035,-0.0052,2.0,2.0,2.0,0.0,0.0153,-0.0,0.0071,0,8
7.3,2.0072,2.0073,2.0114,-0.0,0.0,0.0,-0.0035,-0.0035,-0.0052,2.0,2.0,2.0,0.0,0.0153,-0.0,0.0071,0,8
7.32,2.0072,2.0073,2.0114,0.0,-0.0,0.0,-0.0035,-0.0035,-0.0052,2.0,2.0,2.0,0.0,0.0153,-0.0,0.0071,0,8
7.34,2.0072,2.0073,2.0114,0.0,-0.0,0.0,-0.0035,-0.0035,-0.0052,2.0,2.0,2.0,0.0,0.0153,-0.0,0.0071,0,8
7.36,2.0073,2.0073,2.0114,0.0,-0.0,0.0,-0.0035,-0.0035,-0.0052,2.0,2.0,2.0,0.0,0.0153,-0.0,0.0071,0,8
7.38,2.0073,2.0073,2.0114,0.0,-0.0,0.0,-0.0035,-0.0035,-0.0052,2.0,2.0,2.0,0.0,0.0153,-0.0,0.0071,0,8
7.4,2.0073,2.0073,2.0114,0.0,-0.0,0.0,-0.0034,-0.0035,-0.0052,2.0,2.0,2.0,0.0,0.0154,-0.0,0.0071,0,8
7.42,2.0073,2.0073,2.0114,0.0,-0.0,0.0,-0.0034,-0.0035,-0.0052,2.0,2.0,2.0,0.0,0.0154,-0.0,0.0071,0,8
7.44,2.0073,2.0074,2.0114,0.0,-0.0,0.0,-0.0034,-0.0035,-0.0052,2.0,2.0,2.0,0.0,0.0154,-0.0,0.0071,0,8
7.46,2.0073,2.0074,2.0114,0.0,-0.0,0.0,-0.0034,-0.0035,-0.0052,2.0,2.0,2.0,0.0,0.0154,-0.0,0.0071,0,8
7.48,2.0073,2.0074,2.0114,0.0,-0.0,0.0,-0.0034,-0.0035,-0.0051,2.0,2.0,2.0,0.0,0.0154,-0.0,0.0071,0,8
7.5,2.0073,2.0074,2.0114,0.0,-0.0,0.0,-0.0034,-0.0034,-0.0051,2.0,2.0,2.0,0.0,0.0154,-0.0,0.007,0,8
7.52,2.0073,2.0074,2.0114,0.0,-0.0,0.0,-0.0034,-0.0034,-0.0051,2.0,2.0,2.0,0.0,0.0154,-0.0,0.007,0,8
7.54,2.0073,2.0074,2.0114,0.0,-0.0,0.0,-0.0034,-0.0034,-0.0051,2.0,2.0,2.0,0.0,0.0154,-0.0,0.007,0,8
7.56,2.0073,2.0074,2.0114,0.0,-0.0,0.0,-0.0034,-0.0034,-0.0051,2.0,2.0,2.0,0.0,0.0154,-0.0,0.007,0,8
7.58,2.0073,2.0074,2.0114,0.0,-0.0,0.0,-0.0034,-0.0034,-0.0051,2.0,2.0,2.0,0.0,0.0154,-0.0,0.007,0,8
7.6,2.0073,2.0074,2.0114,0.0,-0.0,0.0,-0.0034,-0.0034,-0.0051,2.0,2.0,2.0,0.0,0.0154,-0.0,0.007,0,8
7.62,2.0073,2.0074,2.0114,0.0,-0.0,0.0,-0.0034,-0.0034,-0.0051,2.0,2.0,2.0,0.0,0.0154,-0.0,0.007,0,8
7.64,2.0073,2.0074,2.0114,0.0,-0.0,0.0,-0.0034,-0.0034,-0.0051,2.0,2.0,2.0,0.0,0.0154,-0.0,0.007,0,8
7.66,2.0073,2.0074,2.0114,0.0,-0.0,0.0,-0.0034,-0.0034,-0.0051,2.0,2.0,2.0,0.0,0.0154,-0.0,0.007,0,8
7.68,2.0073,2.0074,2.0113,0.0,-0.0,0.0,-0.0034,-0.0034,-0.0051,2.0,2.0,2.0,0.0,0.0154,-0.0,0.007,0,8
7.7,2.0073,2.0074,2.0113,0.0,-0.0,0.0,-0.0034,-0.0034,-0.0051,2.0,2.0,2.0,0.0,0.0154,-0.0,0.007,0,8
7.72,2.0073,2.0074,2.0113,0.0,-0.0,0.0,-0.0034,-0.0034,-0.0051,2.0,2.0,2.0,0.0,0.0154,-0.0,0.007,0,8
7.74,2.0073,2.0074,2.0113,0.0,-0.0,0.0,-0.0034,-0.0034,-0.0051,2.0,2.0,2.0,0.0,0.0154,-0.0,0.007,0,8
7.76,2.0073,2.0074,2.0113,0.0,-0.0,0.0,-0.0034,-0.0034,-0.0051,2.0,2.0,2.0,0.0,0.0154,-0.0,0.007,0,8
7.78,2.0073,2.0074,2.0113,0.0,-0.0,0.0,-0.0033,-0.0034,-0.0051,2.0,2.0,2.0,0.0,0.0154,-0.0,0.0069,0,8
7.8,2.0073,2.0074,2.0113,0.0,-0.0,0.0,-0.0033,-0.0034,-0.0051,2.0,2.0,2.0,0.0,0.0154,-0.0,0.0069,0,8
7.82,2.0073,2.0074,2.0113,0.0,-0.0,0.0,-0.0033,-0.0034,-0.0051,2.0,2.0,2.0,0.0,0.0154,-0.0,0.0069,0,8
7.84,2.0073,2.0074,2.0113,0.0,-0.0,0.0,-0.0033,-0.0034,-0.005,2.0,2.0,2.0,0.0,0.0154,-0.0,0.0069,0,8
7.86,2.0073,2.0074,2.0113,0.0,-0.0,0.0,-0.0033,-0.0034,-0.005,2.0,2.0,2.0,0.0,0.0154,-0.0,0.0069,0,8
7.88,2.0073,2.0074,2.0113,0.0,-0.0,0.0,-0.0033,-0.0034,-0.005,2.0,2.0,2.0,0.0,0.0154,-0.0,0.0069,0,8
7.9,2.0073,2.0074,2.0113,0.0,-0.0,0.0,-0.0033,-0.0033,-0.005,2.0,2.0,2.0,0.0,0.0154,-0.0,0.0068,0,8
7.92,2.0073,2.0074,2.0113,0.0,-0.0,0.0,-0.0033,-0.0033,-0.005,2.0,2.0,2.0,0.0,0.0154,-0.0,0.0069,0,8
7.94,2.0073,2.0074,2.0113,0.0,-0.0,0.0,-0.0033,-0.0033,-0.005,2.0,2.0,2.0,0.0,0.0154,-0.0,0.0069,0,8
7.96,2.0073,2.0074,2.0113,0.0,-0.0,0.0,-0.0033,-0.0033,-0.005,2.0,2.0,2.0,0.0,0.0154,-0.0,0.0068,0,8
7.98,2.0073,2.0074,2.0113,0.0,-0.0,0.0,-0.0033,-0.0033,-0.005,2.0,2.0,2.0,0.0,0.0154,-0.0,0.0068,0,8
8.0,2.0073,2.0074,2.0113,0.0,-0.0,0.0,-0.0033,-0.0033,-0.005,2.0,2.0,2.0,0.0,0.0154,-0.0,0.0068,0,8
8.02,2.0073,2.0074,2.0113,0.0,-0.0,0.0,-0.0033,-0.0033,-0.005,2.0,2.0,2.0,0.0,0.0153,-0.0,0.0068,0,8
8.04,2.0073,2.0074,2.0113,0.0,-0.0,0.0,-0.0033,-0.0033,-0.005,2.0,2.0,2.0,0.0,0.0153,-0.0,0.0068,0,8
8.06,2.0073,2.0074,2.0112,0.0,-0.0,0.0,-0.0033,-0.0033,-0.005,2.0,2.0,2.0,0.0,0.0153,-0.0,0.0068,0,8
8.08,2.0073,2.0074,2.0112,0.0,-0.0,0.0,-0.0033,-0.0033,-0.005,2.0,2.0,2.0,0.0,0.0153,-0.0,0.0068,0,8
8.1,2.0073,2.0074,2.0112,0.0,-0.0,0.0,-0.0033,-0.0033,-0.005,2.0,2.0,2.0,0.0,0.0153,-0.0,0.0068,0,8
8.12,2.0073,2.0074,2.0112,0.0,-0.0,0.0,-0.0033,-0.0033,-0.005,2.0,2.0,2.0,0.0,0.0153,-0.0,0.0068,0,8
8.14,2.0073,2.0074,2.0112,0.0,-0.0,0.0,-0.0033,-0.0033,-0.005,2.0,2.0,2.0,0.0,0.0153,-0.0,0.0068,0,8
8.16,2.0073,2.0074,2.0112,0.0,-0.0,0.0,-0.0033,-0.0033,-0.0049,2.0,2.0,2.0,0.0,0.0153,-0.0,0.0068,0,8
8.18,2.0073,2.0074,2.0112,0.0,-0.0,0.0,-0.0033,-0.0033,-0.0049,2.0,2.0,2.0,0.0,0.0153,-0.0,0.0068,0,8
8.2,2.0073,2.0074,2.0112,0.0,-0.0,0.0,-0.0033,-0.0033,-0.0049,2.0,2.0,2.0,0.0,0.0153,-0.0,0.0068,0,8
8.22,2.0073,2.0074,2.0112,0.0,-0.0,0.0,-0.0033,-0.0033,-0.0049,2.0,2.0,2.0,0.0,0.0153,-0.0,0.0068,0,8
8.24,2.0073,2.0074,2.0112,0.0,-0.0,0.0,-0.0033,-0.0033,-0.0049,2.0,2.0,2.0,0.0,0.0153,-0.0,0.0068,0,8
8.26,2.0073,2.0074,2.0112,0.0,-0.0,0.0,-0.0033,-0.0033,-0.0049,2.0,2.0,2.0,0.0,0.0153,-0.0,0.0068,0,8
8.28,2.0073,2.0074,2.0112,0.0,-0.0,0.0,-0.0033,-0.0033,-0.0049,2.0,2.0,2.0,0.0,0.0152,-0.0,0.0068,0,8
8.3,2.0073,2.0074,2.0111,0.0,-0.0,0.0,-0.0032,-0.0033,-0.0049,2.0,2.0,2.0,0.0,0.0152,-0.0,0.0067,0,8
8.32,2.0073,2.0074,2.0111,0.0,-0.0,0.0,-0.0032,-0.0033,-0.0049,2.0,2.0,2.0,0.0,0.0152,-0.0,0.0067,0,8
8.34,2.0073,2.0074,2.0111,0.0,-0.0,0.0,-0.0032,-0.0033,-0.0049,2.0,2.0,2.0,0.0,0.0152,-0.0,0.0067,0,8
8.36,2.0073,2.0074,2.0111,0.0,-0.0,0.0,-0.0032,-0.0032,-0.0049,2.0,2.0,2.0,0.0,0.0152,-0.0,0.0067,0,8
8.38,2.0073,2.0074,2.0111,0.0,-0.0,0.0,-0.0032,-0.0032,-0.0049,2.0,2.0,2.0,0.0,0.0152,-0.0,0.0067,0,8
8.4,2.0073,2.0074,2.0111,0.0,-0.0,0.0,-0.0032,-0.0032,-0.0049,2.0,2.0,2.0,0.0,0.0152,-0.0,0.0067,0,8
8.42,2.0073,2.0074,2.0111,0.0,-0.0,0.0,-0.0032,-0.0032,-0.0049,2.0,2.0,2.0,0.0,0.0152,-0.0,0.0067,0,8
8.44,2.0073,2.0073,2.0111,0.0,-0.0,0.0,-0.0032,-0.0032,-0.0049,2.0,2.0,2.0,0.0,0.0152,-0.0,0.0067,0,8
8.46,2.0073,2.0073,2.0111,0.0,-0.0,0.0,-0.0032,-0.0032,-0.0048,2.0,2.0,2.0,0.0,0.0151,-0.0,0.0067,0,8
8.48,2.0073,2.0073,2.0111,0.0,-0.0,0.0,-0.0032,-0.0032,-0.0048,2.0,2.0,2.0,0.0,0.0151,-0.0,0.0066,0,8
8.5,2.0073,2.0073,2.011,0.0,-0.0,0.0,-0.0032,-0.0032,-0.0048,2.0,2.0,2.0,0.0,0.0151,-0.0,0.0066,0,8
8.52,2.0073,2.0073,2.011,0.0,-0.0,0.0,-0.0032,-0.0032,-0.0048,2.0,2.0,2.0,0.0,0.0151,-0.0,0.0066,0,8
8.54,2.0073,2.0073,2.011,0.0,-0.0,0.0,-0.0032,-0.0032,-0.0048,2.0,2.0,2.0,0.0,0.0151,-0.0,0.0066,0,8
8.56,2.0073,2.0073,2.011,0.0,-0.0,0.0,-0.0032,-0.0032,-0.0048,2.0,2.0,2.0,0.0,0.0151,-0.0,0.0066,0,8
8.58,2.0073,2.0073,2.011,0.0,-0.0,0.0,-0.0032,-0.0032,-0.0048,2.0,2.0,2.0,0.0,0.0151,-0.0,0.0066,0,8
8.6,2.0073,2.0073,2.011,0.0,-0.0,0.0,-0.0032,-0.0032,-0.0048,2.0,2.0,2.0,0.0,0.0151,-0.0,0.0066,0,8
8.62,2.0072,2.0073,2.011,0.0,-0.0,0.0,-0.0032,-0.0032,-0.0048,2.0,2.0,2.0,0.0,0.015,-0.0,0.0066,0,8
8.64,2.0072,2.0073,2.011,0.0,-0.0,0.0,-0.0032,-0.0032,-0.0048,2.0,2.0,2.0,0.0,0.015,-0.0,0.0066,0,8
8.66,2.0072,2.0073,2.011,0.0,-0.0,0.0,-0.0032,-0.0032,-0.0048,2.0,2.0,2.0,0.0,0.015,-0.0,0.0066,0,8
8.68,2.0072,2.0073,2.0109,0.0,-0.0,0.0,-0.0032,-0.0032,-0.0048,2.0,2.0,2.0,0.0,0.015,-0.0,0.0066,0,8
8.7,2.0072,2.0073,2.0109,0.0,-0.0,0.0,-0.0031,-0.0032,-0.0047,2.0,2.0,2.0,0.0,0.015,-0.0,0.0065,0,8
8.72,2.0072,2.0073,2.0109,0.0,-0.0,-0.0,-0.0031,-0.0032,-0.0047,2.0,2.0,2.0,0.0,0.015,0.0,0.0065,0,8
8.74,2.0072,2.0073,2.0109,0.0,-0.0,0.0,-0.0031,-0.0032,-0.0047,2.0,2.0,2.0,0.0,0.015,-0.0,0.0065,0,8
8.76,2.0072,2.0073,2.0109,0.0,-0.0,0.0,-0.0031,-0.0032,-0.0047,2.0,2.0,2.0,0.0,0.0149,-0.0,0.0065,0,8
8.78,2.0072,2.0073,2.0109,0.0,-0.0,0.0,-0.0031,-0.0032,-0.0047,2.0,2.0,2.0,0.0,0.0149,-0.0,0.0065,0,8
8.8,2.0072,2.0073,2.0109,0.0,-0.0,0.0,-0.0031,-0.0032,-0.0047,2.0,2.0,2.0,0.0,0.0149,-0.0,0.0065,0,8
8.82,2.0072,2.0073,2.0109,0.0,-0.0,0.0,-0.0031,-0.0032,-0.0047,2.0,2.0,2.0,0.0,0.0149,-0.0,0.0065,0,8
8.84,2.0072,2.0072,2.0108,0.0,-0.0,0.0,-0.0031,-0.0032,-0.0047,2.0,2.0,2.0,0.0,0.0149,-0.0,0.0065,0,8
8.86,2.0072,2.0072,2.0108,0.0,-0.0,0.0,-0.0031,-0.0032,-0.0047,2.0,2.0,2.0,0.0,0.0149,-0.0,0.0065,0,8
8.88,2.0072,2.0072,2.0108,0.0,-0.0,0.0,-0.0031,-0.0031,-0.0047,2.0,2.0,2.0,0.0,0.0149,-0.0,0.0065,0,8
8.9,2.0072,2.0072,2.0108,0.0,-0.0,0.0,-0.0031,-0.0031,-0.0047,2.0,2.0,2.0,0.0,0.0148,-0.0,0.0065,0,8
8.92,2.0072,2.0072,2.0108,0.0,-0.0,0.0,-0.0031,-0.0031,-0.0047,2.0,2.0,2.0,0.0,0.0148,-0.0,0.0065,0,8
8.94,2.0072,2.0072,2.0108,0.0,-0.0,0.0,-0.0031,-0.0031,-0.0047,2.0,2.0,2.0,0.0,0.0148,-0.0,0.0064,0,8
8.96,2.0071,2.0072,2.0108,0.0,-0.0,0.0,-0.0031,-0.0031,-0.0047,2.0,2.0,2.0,0.0,0.0148,-0.0,0.0064,0,8
8.98,2.0071,2.0072,2.0108,0.0,-0.0,0.0,-0.0031,-0.0031,-0.0047,2.0,2.0,2.0,0.0,0.0148,-0.0,0.0064,0,8
9.0,2.0071,2.0072,2.0107,0.0,-0.0,0.0,-0.0031,-0.0031,-0.0047,2.0,2.0,2.0,0.0,0.0148,-0.0,0.0064,0,8
9.02,2.0071,2.0072,2.0107,0.0,-0.0,0.0,-0.0031,-0.0031,-0.0047,2.0,2.0,2.0,0.0,0.0148,-0.0,0.0064,0,8
9.04,2.0071,2.0072,2.0107,0.0,-0.0,0.0,-0.0031,-0.0031,-0.0047,2.0,2.0,2.0,0.0,0.0147,-0.0,0.0064,0,8
9.06,2.0071,2.0072,2.0107,0.0,-0.0,0.0,-0.0031,-0.0031,-0.0047,2.0,2.0,2.0,0.0,0.0147,-0.0,0.0064,0,8
9.08,2.0071,2.0072,2.0107,0.0,-0.0,0.0,-0.0031,-0.0031,-0.0046,2.0,2.0,2.0,0.0,0.0147,-0.0,0.0064,0,8
9.1,2.0071,2.0072,2.0107,0.0,-0.0,0.0,-0.0031,-0.0031,-0.0046,2.0,2.0,2.0,0.0,0.0147,-0.0,0.0063,0,8
9.12,2.0071,2.0072,2.0107,0.0,-0.0,-0.0,-0.0031,-0.0031,-0.0046,2.0,2.0,2.0,0.0,0.0147,0.0,0.0063,0,8
9.14,2.0071,2.0071,2.0106,0.0,-0.0,0.0,-0.0031,-0.0031,-0.0046,2.0,2.0,2.0,0.0,0.0147,-0.0,0.0063,0,8
9.16,2.0071,2.0071,2.0106,0.0,-0.0,-0.0,-0.0031,-0.0031,-0.0046,2.0,2.0,2.0,0.0,0.0146,0.0,0.0063,0,8
9.18,2.0071,2.0071,2.0106,0.0,-0.0,0.0,-0.003,-0.0031,-0.0046,2.0,2.0,2.0,0.0,0.0146,-0.0,0.0063,0,8
9.2,2.0071,2.0071,2.0106,0.0,-0.0,-0.0,-0.003,-0.0031,-0.0046,2.0,2.0,2.0,0.0,0.0146,0.0,0.0063,0,8
9.22,2.0071,2.0071,2.0106,0.0,-0.0,0.0,-0.003,-0.0031,-0.0046,2.0,2.0,2.0,0.0,0.0146,-0.0,0.0063,0,8
9.24,2.0071,2.0071,2.0106,0.0,-0.0,0.0,-0.003,-0.0031,-0.0046,2.0,2.0,2.0,0.0,0.0146,-0.0,0.0063,0,8
9.26,2.007,2.0071,2.0106,0.0,-0.0,0.0,-0.003,-0.0031,-0.0046,2.0,2.0,2.0,0.0,0.0146,-0.0,0.0063,0,8
9.28,2.007,2.0071,2.0106,0.0,-0.0,0.0,-0.003,-0.0031,-0.0046,2.0,2.0,2.0,0.0,0.0145,-0.0,0.0063,0,8
9.3,2.007,2.0071,2.0105,0.0,-0.0,0.0,-0.003,-0.0031,-0.0046,2.0,2.0,2.0,0.0,0.0145,-0.0,0.0063,0,8
9.32,2.007,2.0071,2.0105,0.0,-0.0,0.0,-0.003,-0.0031,-0.0046,2.0,2.0,2.0,0.0,0.0145,-0.0,0.0063,0,8
9.34,2.007,2.0071,2.0105,0.0,-0.0,0.0,-0.003,-0.0031,-0.0045,2.0,2.0,2.0,0.0,0.0145,-0.0,0.0063,0,8
9.36,2.007,2.0071,2.0105,0.0,-0.0,0.0,-0.003,-0.003,-0.0045,2.0,2.0,2.0,0.0,0.0145,-0.0,0.0063,0,8
9.38,2.007,2.0071,2.0105,0.0,-0.0,0.0,-0.003,-0.003,-0.0045,2.0,2.0,2.0,0.0,0.0145,-0.0,0.0062,0,8
9.4,2.007,2.0071,2.0105,0.0,-0.0,0.0,-0.003,-0.003,-0.0045,2.0,2.0,2.0,0.0,0.0144,-0.0,0.0062,0,8
9.42,2.007,2.007,2.0105,0.0,-0.0,0.0,-0.003,-0.003,-0.0045,2.0,2.0,2.0,0.0,0.0144,-0.0,0.0062,0,8
9.44,2.007,2.007,2.0104,0.0,-0.0,0.0,-0.003,-0.003,-0.0045,2.0,2.0,2.0,0.0,0.0144,-0.0,0.0062,0,8
9.46,2.007,2.007,2.0104,0.0,-0.0,0.0,-0.003,-0.003,-0.0045,2.0,2.0,2.0,0.0,0.0144,-0.0,0.0062,0,8
9.48,2.007,2.007,2.0104,0.0,-0.0,0.0,-0.003,-0.003,-0.0045,2.0,2.0,2.0,0.0,0.0144,-0.0,0.0062,0,8
9.5,2.007,2.007,2.0104,0.0,-0.0,0.0,-0.003,-0.003,-0.0045,2.0,2.0,2.0,0.0,0.0143,-0.0,0.0061,0,8
9.52,2.0069,2.007,2.0104,0.0,-0.0,-0.0,-0.003,-0.003,-0.0045,2.0,2.0,2.0,0.0,0.0143,0.0,0.0061,0,8
9.54,2.0069,2.007,2.0104,0.0,-0.0,-0.0,-0.003,-0.003,-0.0045,2.0,2.0,2.0,0.0,0.0143,0.0,0.0061,0,8
9.56,2.0069,2.007,2.0104,0.0,-0.0,-0.0,-0.003,-0.003,-0.0045,2.0,2.0,2.0,0.0,0.0143,0.0,0.0061,0,8
9.58,2.0069,2.007,2.0103,0.0,-0.0,-0.0,-0.003,-0.003,-0.0045,2.0,2.0,2.0,0.0,0.0143,0.0,0.0061,0,8
9.6,2.0069,2.007,2.0103,0.0,-0.0,-0.0,-0.003,-0.003,-0.0045,2.0,2.0,2.0,0.0,0.0143,0.0,0.0061,0,8
9.62,2.0069,2.007,2.0103,0.0,-0.0,0.0,-0.003,-0.003,-0.0044,2.0,2.0,2.0,0.0,0.0142,-0.0,0.0061,0,8
9.64,2.0069,2.007,2.0103,0.0,-0.0,0.0,-0.003,-0.003,-0.0044,2.0,2.0,2.0,0.0,0.0142,-0.0,0.0061,0,8
9.66,2.0069,2.0069,2.0103,0.0,-0.0,0.0,-0.003,-0.003,-0.0044,2.0,2.0,2.0,0.0,0.0142,-0.0,0.0061,0,8
9.68,2.0069,2.0069,2.0103,0.0,-0.0,0.0,-0.0029,-0.003,-0.0044,2.0,2.0,2.0,0.0,0.0142,-0.0,0.0061,0,8
9.7,2.0069,2.0069,2.0103,0.0,-0.0,0.0,-0.0029,-0.003,-0.0044,2.0,2.0,2.0,0.0,0.0142,-0.0,0.0061,0,8
9.72,2.0069,2.0069,2.0102,0.0,-0.0,0.0,-0.0029,-0.003,-0.0044,2.0,2.0,2.0,0.0,0.0141,-0.0,0.0061,0,8
9.74,2.0069,2.0069,2.0102,0.0,-0.0,0.0,-0.0029,-0.003,-0.0044,2.0,2.0,2.0,0.0,0.0141,-0.0,0.0061,0,8
9.76,2.0068,2.0069,2.0102,0.0,-0.0,0.0,-0.0029,-0.003,-0.0044,2.0,2.0,2.0,0.0,0.0141,-0.0,0.0061,0,8
9.78,2.0068,2.0069,2.0102,0.0,-0.0,0.0,-0.0029,-0.003,-0.0044,2.0,2.0,2.0,0.0,0.0141,-0.0,0.0061,0,8
9.8,2.0068,2.0069,2.0102,0.0,-0.0,0.0,-0.0029,-0.003,-0.0044,2.0,2.0,2.0,0.0,0.0141,-0.0,0.006,0,8
9.82,2.0068,2.0069,2.0102,0.0,-0.0,0.0,-0.0029,-0.0029,-0.0044,2.0,2.0,2.0,0.0,0.014,-0.0,0.006,0,8
9.84,2.0068,2.0069,2.0102,0.0,-0.0,0.0,-0.0029,-0.0029,-0.0044,2.0,2.0,2.0,0.0,0.014,-0.0,0.006,0,8
9.86,2.0068,2.0069,2.0101,0.0,-0.0,0.0,-0.0029,-0.0029,-0.0044,2.0,2.0,2.0,0.0,0.014,-0.0,0.006,0,8
9.88,2.0068,2.0069,2.0101,0.0,-0.0,0.0,-0.0029,-0.0029,-0.0044,2.0,2.0,2.0,0.0,0.014,-0.0,0.006,0,8
9.9,2.0068,2.0068,2.0101,0.0,-0.0,0.0,-0.0029,-0.0029,-0.0043,2.0,2.0,2.0,0.0,0.014,-0.0,0.0059,0,8
9.92,2.0068,2.0068,2.0101,0.0,-0.0,-0.0,-0.0029,-0.0029,-0.0043,2.0,2.0,2.0,0.0,0.0139,0.0,0.006,0,8
9.94,2.0068,2.0068,2.0101,0.0,-0.0,-0.0,-0.0029,-0.0029,-0.0043,2.0,2.0,2.0,0.0,0.0139,0.0,0.006,0,8
9.96,2.0068,2.0068,2.0101,0.0,-0.0,-0.0,-0.0029,-0.0029,-0.0043,2.0,2.0,2.0,0.0,0.0139,0.0,0.0059,0,8
9.98,2.0068,2.0068,2.01,0.0,-0.0,-0.0,-0.0029,-0.0029,-0.0043,2.0,2.0,2.0,0.0,0.0139,0.0,0.0059,0,8
10.0,2.0067,2.0068,2.01,0.0,-0.0,-0.0,-0.0029,-0.0029,-0.0043,2.0,2.0,2.0,0.0,0.0139,0.0,0.0059,0,8
10.02,2.0067,2.0068,2.01,0.0,-0.0,-0.0,-0.0029,-0.0029,-0.0043,2.0,2.0,2.0,0.0,0.0139,0.0,0.0059,0,8
10.04,2.0067,2.0068,2.01,0.0,-0.0,0.0,-0.0029,-0.0029,-0.0043,2.0,2.0,2.0,0.0,0.0138,-0.0,0.0059,0,8
10.06,2.0067,2.0068,2.01,0.0,-0.0,0.0,-0.0029,-0.0029,-0.0043,2.0,2.0,2.0,0.0,0.0138,-0.0,0.0059,0,8
10.08,2.0067,2.0068,2.01,0.0,-0.0,0.0,-0.0029,-0.0029,-0.0043,2.0,2.0,2.0,0.0,0.0138,-0.0,0.0059,0,8
10.1,2.0067,2.0068,2.01,0.0,-0.0,0.0,-0.0018,-0.0018,-0.0028,2.0,2.0,2.0,0.0,0.0138,-0.0,0.0038,0,13
10.12,2.0067,2.0068,2.0099,0.0001,-0.0001,-0.0002,-0.002,-0.002,-0.0012,2.0,2.0,2.0,0.0,0.0137,0.0002,0.003,0,13
10.14,2.0067,2.0068,2.0098,-0.0001,0.0001,-0.0001,-0.002,-0.002,-0.0022,2.0,2.0,2.0,0.0,0.0137,0.0001,0.0036,0,13
10.16,2.0067,2.0068,2.0098,-0.0001,0.0001,-0.0001,-0.0021,-0.0021,-0.0035,2.0,2.0,2.0,0.0,0.0137,0.0001,0.0046,0,13
10.18,2.0067,2.0068,2.0099,-0.0001,0.0001,-0.0001,-0.0021,-0.0021,-0.0034,2.0,2.0,2.0,0.0,0.0137,0.0001,0.0045,0,13
10.2,2.0067,2.0068,2.0099,-0.0,0.0,-0.0001,-0.0022,-0.0022,-0.0034,2.0,2.0,2.0,0.0,0.0137,0.0001,0.0046,0,13
10.22,2.0067,2.0068,2.0099,-0.0001,0.0,-0.0001,-0.0023,-0.0023,-0.0037,2.0,2.0,2.0,0.0,0.0137,0.0001,0.0049,0,13
10.24,2.0067,2.0068,2.0099,-0.0001,0.0001,-0.0,-0.0023,-0.0023,-0.0037,2.0,2.0,2.0,0.0,0.0138,0.0,0.0049,0,13
10.26,2.0067,2.0068,2.01,-0.0001,0.0,-0.0,-0.0024,-0.0024,-0.0037,2.0,2.0,2.0,0.0,0.0138,0.0,0.005,0,13
10.28,2.0067,2.0068,2.01,-0.0,0.0,-0.0,-0.0024,-0.0025,-0.0037,2.0,2.0,2.0,0.0,0.0138,0.0,0.0051,0,13
10.3,2.0068,2.0068,2.01,-0.0,0.0,-0.0,-0.0034,-0.0034,-0.0049,2.0,2.0,2.0,0.0,0.0139,0.0,0.0068,0,8
10.32,2.0068,2.0068,2.0099,-0.0001,0.0001,-0.0002,-0.0033,-0.0033,-0.0026,2.0,2.0,2.0,0.0,0.0138,0.0002,0.0053,0,8
10.34,2.0068,2.0068,2.0098,0.0001,-0.0001,-0.0001,-0.0033,-0.0033,-0.0027,2.0,2.0,2.0,0.0,0.0137,0.0001,0.0053,0,8
10.36,2.0068,2.0068,2.0097,0.0001,-0.0001,-0.0001,-0.0032,-0.0032,-0.0038,2.0,2.0,2.0,0.0,0.0137,0.0001,0.0059,0,8
10.38,2.0068,2.0069,2.0097,0.0,-0.0,-0.0,-0.0031,-0.0032,-0.004,2.0,2.0,2.0,0.0,0.0137,0.0,0.006,0,8
10.4,2.0068,2.0069,2.0097,0.0,-0.0,-0.0,-0.0031,-0.0031,-0.004,2.0,2.0,2.0,0.0,0.0137,0.0,0.0059,0,8
10.42,2.0068,2.0069,2.0097,0.0,-0.0,-0.0,-0.0031,-0.0031,-0.0041,2.0,2.0,2.0,0.0,0.0137,0.0,0.0059,0,8
10.44,2.0068,2.0069,2.0096,0.0,-0.0,-0.0,-0.003,-0.003,-0.0041,2.0,2.0,2.0,0.0,0.0136,0.0,0.0059,0,8
10.46,2.0068,2.0068,2.0096,0.0,-0.0,-0.0,-0.003,-0.003,-0.0041,2.0,2.0,2.0,0.0,0.0136,0.0,0.0059,0,8
10.48,2.0068,2.0068,2.0096,0.0,-0.0,0.0,-0.0029,-0.003,-0.0041,2.0,2.0,2.0,0.0,0.0136,-0.0,0.0059,0,8
10.5,2.0068,2.0068,2.0096,0.0,-0.0,0.0,-0.0029,-0.0029,-0.0041,2.0,2.0,2.0,0.0,0.0136,-0.0,0.0058,0,8
10.52,2.0068,2.0068,2.0096,0.0,-0.0,0.0,-0.0029,-0.0029,-0.0041,2.0,2.0,2.0,0.0,0.0136,-0.0,0.0058,0,8
10.54,2.0068,2.0068,2.0096,0.0,-0.0,0.0,-0.0029,-0.0029,-0.0041,2.0,2.0,2.0,0.0,0.0136,-0.0,0.0058,0,8
10.56,2.0067,2.0068,2.0096,0.0,-0.0,0.0,-0.0028,-0.0028,-0.0041,2.0,2.0,2.0,0.0,0.0135,-0.0,0.0058,0,8
10.58,2.0067,2.0068,2.0095,0.0,-0.0,0.0,-0.0028,-0.0028,-0.0041,2.0,2.0,2.0,0.0,0.0135,-0.0,0.0057,0,8
10.6,2.0067,2.0068,2.0095,0.0,-0.0,0.0,-0.0028,-0.0028,-0.0041,2.0,2.0,2.0,0.0,0.0135,-0.0,0.0057,0,8
10.62,2.0067,2.0068,2.0095,0.0,-0.0,0.0,-0.0028,-0.0028,-0.0041,2.0,2.0,2.0,0.0,0.0135,-0.0,0.0057,0,8
10.64,2.0067,2.0067,2.0095,0.0,-0.0,0.0,-0.0028,-0.0028,-0.0041,2.0,2.0,2.0,0.0,0.0134,-0.0,0.0057,0,8
10.66,2.0067,2.0067,2.0095,0.0,-0.0,0.0,-0.0027,-0.0028,-0.0041,2.0,2.0,2.0,0.0,0.0134,-0.0,0.0057,0,8
10.68,2.0067,2.0067,2.0095,0.0,-0.0,0.0,-0.0027,-0.0028,-0.0041,2.0,2.0,2.0,0.0,0.0134,-0.0,0.0056,0,8
10.7,2.0067,2.0067,2.0095,0.0,-0.0,0.0,-0.0027,-0.0027,-0.004,2.0,2.0,2.0,0.0,0.0134,-0.0,0.0056,0,8
10.72,2.0066,2.0067,2.0094,0.0,-0.0,0.0,-0.0027,-0.0027,-0.0041,2.0,2.0,2.0,0.0,0.0133,-0.0,0.0056,0,8
10.74,2.0066,2.0067,2.0094,0.0,-0.0,0.0,-0.0027,-0.0027,-0.0041,2.0,2.0,2.0,0.0,0.0133,-0.0,0.0056,0,8
10.76,2.0066,2.0067,2.0094,0.0,-0.0,0.0,-0.0027,-0.0027,-0.0041,2.0,2.0,2.0,0.0,0.0133,-0.0,0.0056,0,8
10.78,2.0066,2.0066,2.0094,0.0,-0.0,0.0,-0.0027,-0.0027,-0.004,2.0,2.0,2.0,0.0,0.0133,-0.0,0.0056,0,8
10.8,2.0066,2.0066,2.0094,0.0,-0.0,0.0,-0.0027,-0.0027,-0.004,2.0,2.0,2.0,0.0,0.0133,-0.0,0.0056,0,8
10.82,2.0066,2.0066,2.0094,0.0,-0.0,0.0,-0.0027,-0.0027,-0.004,2.0,2.0,2.0,0.0,0.0132,-0.0,0.0056,0,8
10.84,2.0066,2.0066,2.0094,0.0,-0.0,0.0,-0.0027,-0.0027,-0.004,2.0,2.0,2.0,0.0,0.0132,-0.0,0.0056,0,8
10.86,2.0065,2.0066,2.0094,0.0,-0.0,0.0,-0.0027,-0.0027,-0.004,2.0,2.0,2.0,0.0,0.0132,-0.0,0.0056,0,8
10.88,2.0065,2.0066,2.0093,0.0,-0.0,0.0,-0.0027,-0.0027,-0.004,2.0,2.0,2.0,0.0,0.0132,-0.0,0.0056,0,8
10.9,2.0065,2.0066,2.0093,0.0,-0.0,0.0,-0.0027,-0.0027,-0.004,2.0,2.0,2.0,0.0,0.0131,-0.0,0.0056,0,8
10.92,2.0065,2.0066,2.0093,0.0,-0.0,0.0,-0.0027,-0.0027,-0.004,2.0,2.0,2.0,0.0,0.0131,-0.0,0.0056,0,8
10.94,2.0065,2.0065,2.0093,0.0,-0.0,0.0,-0.0027,-0.0027,-0.004,2.0,2.0,2.0,0.0,0.0131,-0.0,0.0056,0,8
10.96,2.0065,2.0065,2.0093,0.0,-0.0,0.0,-0.0027,-0.0027,-0.004,2.0,2.0,2.0,0.0,0.0131,-0.0,0.0056,0,8
10.98,2.0065,2.0065,2.0093,0.0,-0.0,0.0,-0.0027,-0.0027,-0.004,2.0,2.0,2.0,0.0,0.0131,-0.0,0.0055,0,8
11.0,2.0065,2.0065,2.0093,0.0,-0.0,0.0,-0.0027,-0.0027,-0.004,2.0,2.0,2.0,0.0,0.013,-0.0,0.0055,0,8
11.02,2.0065,2.0065,2.0092,0.0,-0.0,0.0,-0.0027,-0.0027,-0.004,2.0,2.0,2.0,0.0,0.013,-0.0,0.0055,0,8
11.04,2.0064,2.0065,2.0092,0.0,-0.0,0.0,-0.0027,-0.0027,-0.004,2.0,2.0,2.0,0.0,0.013,-0.0,0.0055,0,8
11.06,2.0064,2.0065,2.0092,0.0,-0.0,0.0,-0.0027,-0.0027,-0.004,2.0,2.0,2.0,0.0,0.013,-0.0,0.0055,0,8
11.08,2.0064,2.0065,2.0092,0.0,-0.0,0.0,-0.0027,-0.0027,-0.004,2.0,2.0,2.0,0.0,0.013,-0.0,0.0055,0,8
11.1,2.0064,2.0065,2.0092,0.0,-0.0,0.0,-0.0027,-0.0027,-0.0039,2.0,2.0,2.0,0.0,0.0129,-0.0,0.0055,0,8
11.12,2.0064,2.0065,2.0092,0.0,-0.0,0.0,-0.0027,-0.0027,-0.0039,2.0,2.0,2.0,0.0,0.0129,-0.0,0.0055,0,8
11.14,2.0064,2.0064,2.0092,0.0,-0.0,0.0,-0.0027,-0.0027,-0.0039,2.0,2.0,2.0,0.0,0.0129,-0.0,0.0055,0,8
11.16,2.0064,2.0064,2.0091,0.0,-0.0,0.0,-0.0027,-0.0027,-0.0039,2.0,2.0,2.0,0.0,0.0129,-0.0,0.0055,0,8
11.18,2.0064,2.0064,2.0091,0.0,-0.0,0.0,-0.0027,-0.0027,-0.0039,2.0,2.0,2.0,0.0,0.0129,-0.0,0.0054,0,8
11.2,2.0064,2.0064,2.0091,0.0,-0.0,0.0,-0.0017,-0.0017,-0.0025,2.0,2.0,2.0,0.0,0.0128,-0.0,0.0034,0,13
11.22,2.0064,2.0064,2.009,0.0001,-0.0001,-0.0001,-0.0018,-0.0018,-0.001,2.0,2.0,2.0,0.0,0.0128,0.0001,0.0027,0,13
11.24,2.0063,2.0064,2.009,-0.0001,0.0001,-0.0,-0.0018,-0.0018,-0.002,2.0,2.0,2.0,0.0,0.0127,0.0,0.0033,0,13
11.26,2.0063,2.0064,2.009,-0.0001,0.0001,-0.0001,-0.0019,-0.0019,-0.0032,2.0,2.0,2.0,0.0,0.0128,0.0001,0.0042,0,13
11.28,2.0063,2.0064,2.009,-0.0,0.0,-0.0001,-0.002,-0.002,-0.0031,2.0,2.0,2.0,0.0,0.0128,0.0001,0.0042,0,13
11.3,2.0063,2.0064,2.009,-0.0,0.0,-0.0001,-0.002,-0.002,-0.0031,2.0,2.0,2.0,0.0,0.0128,0.0001,0.0042,0,13
11.32,2.0064,2.0064,2.0091,-0.0,0.0,-0.0,-0.0021,-0.0021,-0.0033,2.0,2.0,2.0,0.0,0.0128,0.0,0.0044,0,13
11.34,2.0064,2.0064,2.0091,-0.0001,0.0001,-0.0,-0.0021,-0.0022,-0.0034,2.0,2.0,2.0,0.0,0.0128,0.0,0.0045,0,13
11.36,2.0064,2.0064,2.0091,-0.0,0.0,-0.0,-0.0022,-0.0022,-0.0033,2.0,2.0,2.0,0.0,0.0128,0.0,0.0046,0,13
11.38,2.0064,2.0064,2.0091,-0.0,0.0,-0.0,-0.0022,-0.0023,-0.0034,2.0,2.0,2.0,0.0,0.0129,0.0,0.0046,0,13
11.4,2.0064,2.0064,2.0092,-0.0,0.0,-0.0,-0.0023,-0.0023,-0.0034,2.0,2.0,2.0,0.0,0.0129,0.0,0.0047,0,13
11.42,2.0064,2.0065,2.0092,-0.0,0.0,-0.0,-0.0023,-0.0024,-0.0034,2.0,2.0,2.0,0.0,0.0129,0.0,0.0047,0,13
11.44,2.0064,2.0065,2.0092,-0.0,0.0,-0.0,-0.0024,-0.0024,-0.0034,2.0,2.0,2.0,0.0,0.013,0.0,0.0048,0,13
