time_s,x,y,z,roll_rad,pitch_rad,yaw_rad,vx_cmd,vy_cmd,vz_cmd,target_x,target_y,target_z,target_yaw,dist_m,yaw_err_rad,speed_ms,wind_enabled,rl_profile
0.02,0.0,0.0,0.9759,0.0,-0.0,0.0,1.3498,0.5785,0.3056,5.0,2.0,2.0,0.0,5.4817,0.0,1.5,0,0
0.04,0.0002,0.0,0.9393,-0.0068,0.0125,-0.0014,0.7261,0.2917,0.1666,5.0,2.0,2.0,0.0,5.4885,0.0014,0.8,0,3
0.06,0.0013,0.0004,0.9141,-0.0057,0.0228,0.001,1.0919,0.4356,0.2407,5.0,2.0,2.0,0.0,5.4922,-0.001,1.2,0,1
0.08,0.004,0.0013,0.9002,-0.0105,0.0265,-0.0004,1.0927,0.4378,0.2331,5.0,2.0,2.0,0.0,5.4922,0.0004,1.2,0,1
0.1,0.0085,0.0031,0.8948,-0.0163,0.0318,0.0003,1.3675,0.5466,0.2848,5.0,2.0,2.0,0.0,5.4885,-0.0003,1.5,0,0
0.12,0.0153,0.0062,0.8967,-0.0239,0.0395,0.0008,0.7311,0.2915,0.1433,5.0,2.0,2.0,0.0,5.4808,-0.0008,0.8,0,3
0.14,0.0247,0.0107,0.9026,-0.022,0.049,0.0015,1.3708,0.5448,0.2724,5.0,2.0,2.0,0.0,5.4694,-0.0015,1.5,0,0
0.16,0.0371,0.0167,0.9112,-0.0256,0.0532,0.0007,0.4591,0.1816,0.079,5.0,2.0,2.0,0.0,5.4543,-0.0007,0.5,0,6
0.18,0.0527,0.0241,0.9209,-0.0233,0.0556,0.0023,0.5051,0.1986,0.0892,5.0,2.0,2.0,0.0,5.4354,-0.0023,0.55,0,5
0.2,0.0715,0.0329,0.9291,-0.0224,0.0567,0.001,0.55,0.2171,0.1019,5.0,2.0,2.0,0.0,5.4136,-0.001,0.6,0,4
0.22,0.0932,0.0429,0.9361,-0.0232,0.0561,0.0015,1.372,0.5432,0.2693,5.0,2.0,2.0,0.0,5.3887,-0.0015,1.5,0,0
0.24,0.1182,0.0542,0.9442,-0.0267,0.0641,-0.0007,0.9148,0.364,0.1749,5.0,2.0,2.0,0.0,5.3603,0.0007,1.0,0,2
0.26,0.1467,0.0669,0.9541,-0.0255,0.0711,0.0011,0.733,0.2899,0.1366,5.0,2.0,2.0,0.0,5.3278,-0.0011,0.8,0,3
0.28,0.1787,0.0809,0.964,-0.0269,0.0698,-0.0,0.9154,0.3632,0.1733,5.0,2.0,2.0,0.0,5.2916,0.0,1.0,0,2
0.3,0.2143,0.0963,0.9739,-0.0288,0.0708,0.0004,0.5499,0.2167,0.1031,5.0,2.0,2.0,0.0,5.2517,-0.0004,0.6,0,4
0.32,0.2533,0.1131,0.9836,-0.0303,0.0667,0.0003,0.459,0.1801,0.0828,5.0,2.0,2.0,0.0,5.2082,-0.0003,0.5,0,6
0.34,0.2952,0.1313,0.9921,-0.0309,0.0609,0.0007,0.5043,0.1974,0.0959,5.0,2.0,2.0,0.0,5.1617,-0.0007,0.55,0,5
0.36,0.3396,0.1508,0.9992,-0.028,0.0569,0.0006,1.3723,0.5411,0.2721,5.0,2.0,2.0,0.0,5.1127,-0.0006,1.5,0,0
0.38,0.3865,0.1715,1.0076,-0.0277,0.0641,-0.0009,0.4135,0.1601,0.0768,5.0,2.0,2.0,0.0,5.0609,0.0009,0.45,0,7
0.4,0.4359,0.1934,1.0168,-0.028,0.0566,0.0015,0.4594,0.1768,0.0876,5.0,2.0,2.0,0.0,5.0061,-0.0015,0.5,0,6
0.42,0.4873,0.2163,1.0246,-0.0271,0.0509,0.0002,0.5498,0.2128,0.1115,5.0,2.0,2.0,0.0,4.9495,-0.0002,0.6,0,4
0.44,0.5403,0.2401,1.0319,-0.0232,0.0501,0.0003,0.5498,0.2118,0.1132,5.0,2.0,2.0,0.0,4.8912,-0.0003,0.6,0,4
0.46,0.5948,0.2647,1.0396,-0.0215,0.0482,0.0002,1.3728,0.5363,0.2788,5.0,2.0,2.0,0.0,4.8311,-0.0002,1.5,0,0
0.48,0.6506,0.2898,1.0493,-0.0229,0.0519,-0.0014,0.7331,0.2862,0.1437,5.0,2.0,2.0,0.0,4.7693,0.0014,0.8,0,3
0.5,0.7079,0.3155,1.0603,-0.0209,0.0522,0.0008,1.3744,0.5335,0.2764,5.0,2.0,2.0,0.0,4.7056,-0.0008,1.5,0,0
0.52,0.7667,0.3418,1.0725,-0.0228,0.055,-0.002,1.3734,0.5366,0.2755,5.0,2.0,2.0,0.0,4.6402,0.002,1.5,0,0
0.54,0.827,0.3687,1.0866,-0.0249,0.0561,-0.0008,0.5516,0.2098,0.1085,5.0,2.0,2.0,0.0,4.5727,0.0008,0.6,0,4
0.56,0.8888,0.3963,1.1001,-0.0261,0.0498,0.0003,0.5523,0.2073,0.1093,5.0,2.0,2.0,0.0,4.5037,-0.0003,0.6,0,4
0.58,0.9516,0.4245,1.1115,-0.0255,0.0457,0.0003,0.507,0.1869,0.1025,5.0,2.0,2.0,0.0,4.4341,-0.0003,0.55,0,5
0.6,1.0151,0.4533,1.1211,-0.0227,0.0414,0.0005,0.5524,0.2032,0.1163,5.0,2.0,2.0,0.0,4.364,-0.0005,0.6,0,4
0.62,1.0789,0.4825,1.1298,-0.0197,0.0368,0.0003,0.4619,0.1645,0.0981,5.0,2.0,2.0,0.0,4.2936,-0.0003,0.5,0,6
0.64,1.1429,0.5119,1.1374,-0.0191,0.0322,0.0011,0.4619,0.1625,0.101,5.0,2.0,2.0,0.0,4.2233,-0.0011,0.5,0,6
0.66,1.2066,0.5414,1.1446,-0.0166,0.0282,0.0006,0.4619,0.1613,0.1031,5.0,2.0,2.0,0.0,4.1532,-0.0006,0.5,0,6
0.68,1.2698,0.5709,1.152,-0.0134,0.0245,0.0007,1.3773,0.5157,0.2953,5.0,2.0,2.0,0.0,4.0836,-0.0007,1.5,0,0
0.7,1.3325,0.6003,1.1615,-0.0137,0.0301,-0.001,0.4626,0.1604,0.1012,5.0,2.0,2.0,0.0,4.0141,0.001,0.5,0,6
0.72,1.3947,0.6295,1.1723,-0.0141,0.0241,0.0015,0.5542,0.1954,0.1213,5.0,2.0,2.0,0.0,3.9448,-0.0015,0.6,0,4
0.74,1.4563,0.6585,1.1822,-0.0125,0.0219,-0.0004,0.5537,0.1953,0.1238,5.0,2.0,2.0,0.0,3.8763,0.0004,0.6,0,4
0.76,1.5172,0.6873,1.1919,-0.01,0.0215,0.0005,1.3793,0.5081,0.2987,5.0,2.0,2.0,0.0,3.8087,-0.0005,1.5,0,0
0.78,1.5774,0.7157,1.2033,-0.0098,0.0278,-0.0014,0.4636,0.1579,0.1008,5.0,2.0,2.0,0.0,3.7415,0.0014,0.5,0,6
0.8,1.637,0.7437,1.2154,-0.01,0.0225,0.0012,0.555,0.1926,0.122,5.0,2.0,2.0,0.0,3.6747,-0.0012,0.6,0,4
0.82,1.696,0.7714,1.2263,-0.009,0.0206,-0.0008,0.5545,0.1923,0.1247,5.0,2.0,2.0,0.0,3.6089,0.0008,0.6,0,4
0.84,1.7542,0.7986,1.2367,-0.0071,0.0203,0.0002,0.4191,0.1353,0.0923,5.0,2.0,2.0,0.0,3.5441,-0.0002,0.45,0,7
0.86,1.8116,0.8253,1.2461,-0.0069,0.0156,0.0002,0.5545,0.1897,0.1284,5.0,2.0,2.0,0.0,3.4805,-0.0002,0.6,0,4
0.88,1.8679,0.8514,1.2551,-0.0044,0.0146,-0.0005,0.9221,0.3298,0.2024,5.0,2.0,2.0,0.0,3.4182,0.0005,1.0,0,2
0.9,1.9233,0.8768,1.2652,-0.0016,0.0226,-0.0011,0.5548,0.1893,0.1279,5.0,2.0,2.0,0.0,3.3567,0.0011,0.6,0,4
0.92,1.978,0.9015,1.2759,-0.0038,0.0195,0.0,0.5552,0.1887,0.1271,5.0,2.0,2.0,0.0,3.296,-0.0,0.6,0,4
0.94,2.0319,0.9256,1.2862,-0.0053,0.0161,-0.0003,0.555,0.1883,0.1283,5.0,2.0,2.0,0.0,3.2363,0.0003,0.6,0,4
0.96,2.085,0.9491,1.2964,-0.0037,0.016,-0.0001,0.5551,0.1878,0.1287,5.0,2.0,2.0,0.0,3.1776,0.0001,0.6,0,4
0.98,2.1372,0.9719,1.3066,-0.0022,0.0162,-0.0002,0.5551,0.1877,0.1287,5.0,2.0,2.0,0.0,3.1198,0.0002,0.6,0,4
1.0,2.1886,0.994,1.3169,-0.002,0.0156,-0.0002,0.5552,0.1876,0.1287,5.0,2.0,2.0,0.0,3.0631,0.0002,0.6,0,4
1.02,2.2391,1.0155,1.3274,-0.0019,0.015,-0.0002,0.9241,0.3233,0.2039,5.0,2.0,2.0,0.0,3.0074,0.0002,1.0,0,2
1.04,2.2889,1.0363,1.3387,-0.0001,0.0223,-0.0011,0.5553,0.1887,0.1265,5.0,2.0,2.0,0.0,2.9523,0.0011,0.6,0,4
1.06,2.3383,1.0563,1.3503,-0.0022,0.0201,0.0001,0.5555,0.1888,0.1257,5.0,2.0,2.0,0.0,2.8978,-0.0001,0.6,0,4
1.08,2.3871,1.0759,1.3613,-0.004,0.0179,-0.0004,0.555,0.1892,0.1271,5.0,2.0,2.0,0.0,2.8441,0.0004,0.6,0,4
1.1,2.4354,1.0949,1.3719,-0.0031,0.018,-0.0001,1.3852,0.4841,0.3113,5.0,2.0,2.0,0.0,2.7912,0.0001,1.5,0,0
1.12,2.4833,1.1134,1.3841,-0.0033,0.0266,-0.0014,1.1088,0.3889,0.2434,5.0,2.0,2.0,0.0,2.7384,0.0014,1.2,0,1
1.14,2.5312,1.1315,1.3989,-0.0069,0.0308,-0.0004,0.5564,0.1919,0.1168,5.0,2.0,2.0,0.0,2.6852,0.0004,0.6,0,4
1.16,2.5794,1.1494,1.4137,-0.0092,0.0271,-0.0002,0.5108,0.1758,0.1036,5.0,2.0,2.0,0.0,2.6319,0.0002,0.55,0,5
1.18,2.6275,1.1672,1.4264,-0.0096,0.0252,-0.0001,0.4642,0.1589,0.0962,5.0,2.0,2.0,0.0,2.579,0.0001,0.5,0,6
1.2,2.6755,1.1849,1.4374,-0.0085,0.0232,-0.0001,1.3863,0.4839,0.3068,5.0,2.0,2.0,0.0,2.5267,0.0001,1.5,0,0
1.22,2.7234,1.2025,1.4489,-0.0081,0.031,-0.0013,0.5089,0.1758,0.1126,5.0,2.0,2.0,0.0,2.4744,0.0013,0.55,0,5
1.24,2.7716,1.22,1.4613,-0.0083,0.0285,0.0009,0.5553,0.1914,0.1223,5.0,2.0,2.0,0.0,2.4217,-0.0009,0.6,0,4
1.26,2.8199,1.2374,1.4721,-0.0092,0.0266,-0.0,0.5541,0.1916,0.1275,5.0,2.0,2.0,0.0,2.3692,0.0,0.6,0,4
1.28,2.8683,1.2548,1.4823,-0.0082,0.0271,0.0004,0.4162,0.1425,0.0946,5.0,2.0,2.0,0.0,2.3168,-0.0004,0.45,0,7
1.3,2.9167,1.2721,1.4915,-0.0091,0.0226,0.0008,0.5069,0.1746,0.1228,5.0,2.0,2.0,0.0,2.2647,-0.0008,0.55,0,5
1.32,2.9648,1.2894,1.5001,-0.0075,0.0209,-0.0,1.1078,0.3856,0.2532,5.0,2.0,2.0,0.0,2.2129,0.0,1.2,0,1
1.34,3.0128,1.3065,1.5105,-0.006,0.0304,-0.0009,0.9239,0.3226,0.2057,5.0,2.0,2.0,0.0,2.161,0.0009,1.0,0,2
1.36,3.061,1.3234,1.5227,-0.0074,0.0351,0.0001,0.5538,0.1929,0.1267,5.0,2.0,2.0,0.0,2.1084,-0.0001,0.6,0,4
1.38,3.1096,1.3403,1.5348,-0.0115,0.029,0.0002,0.5536,0.1933,0.1274,5.0,2.0,2.0,0.0,2.0555,-0.0002,0.6,0,4
1.4,3.1584,1.3573,1.5461,-0.0118,0.0268,0.0003,1.3854,0.4829,0.3121,5.0,2.0,2.0,0.0,2.0027,-0.0003,1.5,0,0
1.42,3.2074,1.3744,1.5585,-0.0108,0.0356,-0.0009,0.5076,0.1777,0.1153,5.0,2.0,2.0,0.0,1.9493,0.0009,0.55,0,5
1.44,3.2569,1.3916,1.5715,-0.0112,0.0325,0.0014,0.9258,0.3219,0.1982,5.0,2.0,2.0,0.0,1.8952,-0.0014,1.0,0,2
1.46,3.3069,1.409,1.5841,-0.0105,0.0378,-0.0009,1.109,0.3887,0.2429,5.0,2.0,2.0,0.0,1.8409,0.0009,1.2,0,1
1.48,3.3577,1.4264,1.5975,-0.0108,0.0429,0.0001,1.1097,0.3885,0.2398,5.0,2.0,2.0,0.0,1.7856,-0.0001,1.2,0,1
1.5,3.4095,1.4441,1.6123,-0.0147,0.0453,-0.0005,0.4172,0.1514,0.0742,5.0,2.0,2.0,0.0,1.7289,0.0005,0.45,0,7
1.52,3.4622,1.4621,1.626,-0.0177,0.0373,0.0016,0.4154,0.1503,0.086,5.0,2.0,2.0,0.0,1.6715,-0.0016,0.45,0,7
1.54,3.5155,1.4805,1.6373,-0.016,0.0336,0.0005,0.9238,0.3236,0.2047,5.0,2.0,2.0,0.0,1.614,-0.0005,1.0,0,2
1.56,3.5693,1.4992,1.6482,-0.0113,0.0411,0.0001,0.4073,0.1451,0.1248,5.0,2.0,2.0,0.0,1.5561,-0.0001,0.45,0,7
1.58,3.6236,1.5181,1.6585,-0.0158,0.0315,0.002,0.7384,0.2572,0.1691,5.0,2.0,2.0,0.0,1.4977,-0.002,0.8,0,3
1.6,3.6781,1.5374,1.6682,-0.0152,0.0325,0.0005,0.9213,0.321,0.2195,5.0,2.0,2.0,0.0,1.4392,-0.0005,1.0,0,2
1.62,3.7331,1.5568,1.6791,-0.0106,0.0399,0.0007,-0.0944,-0.0329,-0.0033,5.0,2.0,2.0,0.0,1.3801,-0.0007,0.1,0,11
1.64,3.7884,1.5764,1.6887,-0.0122,0.0268,0.0023,-0.0945,-0.0327,-0.0012,5.0,2.0,2.0,0.0,1.3208,-0.0023,0.1,0,11
1.66,3.8434,1.5961,1.695,-0.0112,0.0182,0.0014,0.9148,0.3155,0.2522,5.0,2.0,2.0,0.0,1.2626,-0.0014,1.0,0,2
1.68,3.8978,1.6156,1.7011,-0.0067,0.0267,0.0004,1.3693,0.4732,0.3885,5.0,2.0,2.0,0.0,1.205,-0.0004,1.5,0,0
1.7,3.9521,1.6349,1.7117,-0.0066,0.0325,-0.0002,0.418,0.1346,0.239,5.0,2.0,2.0,0.0,1.1465,0.0002,0.5,0,6
1.72,4.0065,1.6542,1.7255,-0.012,0.0238,0.002,-0.0747,-0.0259,-0.0126,5.0,2.0,2.0,0.0,1.0872,-0.002,0.08,0,13
1.74,4.0604,1.6735,1.7374,-0.0129,0.0138,0.0021,-0.0748,-0.0264,-0.01,5.0,2.0,2.0,0.0,1.0288,-0.0021,0.08,0,13
1.76,4.1133,1.6929,1.7453,-0.0071,0.0082,0.0019,1.0931,0.3686,0.3304,5.0,2.0,2.0,0.0,0.9724,-0.0019,1.2,0,1
1.78,4.1649,1.7119,1.7531,-0.0042,0.0185,0.0002,0.726,0.2417,0.2333,5.0,2.0,2.0,0.0,0.9172,-0.0002,0.8,0,3
1.8,4.2158,1.7305,1.7638,-0.0048,0.0198,0.0019,-0.0373,-0.0134,-0.0056,5.0,2.0,2.0,0.0,0.8621,-0.0019,0.04,0,15
1.82,4.266,1.749,1.7739,-0.0074,0.0073,0.0023,0.7285,0.2359,0.2317,5.0,2.0,2.0,0.0,0.808,-0.0023,0.8,0,3
1.84,4.315,1.767,1.7826,-0.0038,0.0141,0.0009,1.3568,0.4434,0.4609,5.0,2.0,2.0,0.0,0.7555,-0.0009,1.5,0,0
1.86,4.3634,1.7846,1.7951,-0.0018,0.0239,0.0002,-0.037,-0.0132,-0.0075,5.0,2.0,2.0,0.0,0.7026,-0.0002,0.04,0,15
1.88,4.4114,1.8019,1.8099,-0.0054,0.0102,0.0022,-0.4123,-0.1673,-0.0673,5.0,2.0,2.0,0.0,0.6495,-0.0022,0.45,0,7
1.9,4.4583,1.8189,1.8192,-0.0028,0.0034,0.0011,-0.0937,-0.0336,-0.0098,5.0,2.0,2.0,0.0,0.5992,-0.0011,0.1,0,12
1.92,4.5037,1.8353,1.824,0.0015,-0.0041,0.0008,-0.141,-0.0512,0.0019,5.0,2.0,2.0,0.0,0.5517,-0.0008,0.15,0,9
1.94,4.5473,1.851,1.8267,0.0038,-0.0104,0.0006,-0.1876,-0.0682,0.0121,5.0,2.0,2.0,0.0,0.5072,-0.0006,0.2,0,8
1.96,4.5886,1.8658,1.8283,0.0066,-0.0167,0.0003,-0.277,-0.1486,0.5111,5.0,2.0,2.0,0.0,0.4656,-0.0003,0.6,0,4
1.98,4.6269,1.8795,1.8341,0.0116,-0.0323,0.0,1.2466,0.3702,0.7476,5.0,2.0,2.0,0.0,0.4257,-0.0,1.5,0,0
2.0,4.6617,1.8918,1.8513,0.0107,-0.0173,-0.0013,-0.3947,-0.1551,-0.1504,5.0,2.0,2.0,0.0,0.385,0.0013,0.45,0,7
2.02,4.694,1.903,1.8721,0.0082,-0.0233,-0.0006,-0.3612,-0.1366,-0.231,5.0,2.0,2.0,0.0,0.3455,0.0006,0.45,0,7
2.04,4.7237,1.9133,1.8831,0.0076,-0.0316,-0.0004,1.079,0.3021,0.4296,5.0,2.0,2.0,0.0,0.3122,0.0004,1.2,0,1
2.06,4.7507,1.9227,1.8892,0.011,-0.0183,-0.0016,-0.0753,-0.0256,-0.0083,5.0,2.0,2.0,0.0,0.2836,0.0016,0.08,0,13
2.08,4.7751,1.931,1.897,0.0083,-0.0247,0.001,-0.1125,-0.0377,-0.018,5.0,2.0,2.0,0.0,0.2568,-0.001,0.12,0,10
2.1,4.7971,1.9386,1.9018,0.0065,-0.0279,-0.0003,0.1132,0.0298,0.0739,5.0,2.0,2.0,0.0,0.2336,0.0003,0.1384,0,1
2.12,4.8167,1.9452,1.9052,0.0107,-0.0249,-0.0003,0.0673,0.0159,0.059,5.0,2.0,2.0,0.0,0.2135,0.0003,0.0909,0,3
2.14,4.8338,1.9509,1.9085,0.0116,-0.0234,0.0,-0.0306,-0.0153,0.0439,5.0,2.0,2.0,0.0,0.1959,-0.0,0.0556,0,4
2.16,4.8487,1.9557,1.9113,0.0094,-0.0266,0.0003,0.0768,0.0203,0.0658,5.0,2.0,2.0,0.0,0.1808,-0.0003,0.1032,0,2
2.18,4.8614,1.9596,1.9142,0.011,-0.0256,-0.0004,-0.0961,-0.0277,0.0002,5.0,2.0,2.0,0.0,0.168,0.0004,0.1,0,11
2.2,4.8719,1.9627,1.9158,0.0084,-0.0287,0.0016,-0.0964,-0.0248,0.0097,5.0,2.0,2.0,0.0,0.1578,-0.0016,0.1,0,12
2.22,4.8801,1.9652,1.9161,0.0091,-0.03,-0.0001,0.0196,0.0054,0.0605,5.0,2.0,2.0,0.0,0.1504,0.0001,0.0638,0,4
2.24,4.8862,1.9668,1.9163,0.0103,-0.0279,0.0008,0.0723,0.0213,0.066,5.0,2.0,2.0,0.0,0.1451,-0.0008,0.1002,0,3
2.26,4.8902,1.9678,1.9173,0.0111,-0.0242,0.0001,0.0786,0.0243,0.0613,5.0,2.0,2.0,0.0,0.1412,-0.0001,0.1026,0,3
2.28,4.8925,1.968,1.9187,0.0102,-0.0223,0.0009,-0.013,0.0157,0.0222,5.0,2.0,2.0,0.0,0.1385,-0.0009,0.0301,0,14
2.3,4.8932,1.9675,1.9198,0.0069,-0.0228,0.0009,0.0628,0.0253,0.0355,5.0,2.0,2.0,0.0,0.1375,-0.0009,0.0764,0,6
2.32,4.8923,1.9666,1.9207,0.0072,-0.0213,0.0007,0.1227,0.0413,0.0749,5.0,2.0,2.0,0.0,0.1378,-0.0007,0.1496,0,1
2.34,4.8902,1.9652,1.9219,0.0075,-0.0171,0.0005,0.0841,0.049,0.0227,5.0,2.0,2.0,0.0,0.1391,-0.0005,0.1,0,12
2.36,4.887,1.9634,1.9236,0.0057,-0.0128,0.0001,0.1207,0.059,0.0152,5.0,2.0,2.0,0.0,0.1412,-0.0001,0.1352,0,8
2.38,4.883,1.9612,1.9251,0.0053,-0.0111,0.0001,0.1277,0.0504,0.0375,5.0,2.0,2.0,0.0,0.1442,-0.0001,0.1423,0,5
2.4,4.8785,1.9588,1.9263,0.0034,-0.008,-0.0002,0.1125,0.0469,0.024,5.0,2.0,2.0,0.0,0.148,0.0002,0.1242,0,7
2.42,4.8735,1.9562,1.9276,0.0033,-0.0044,-0.0001,0.0704,0.0366,0.0103,5.0,2.0,2.0,0.0,0.1522,0.0001,0.08,0,13
2.44,4.8683,1.9535,1.9287,0.0029,-0.0033,-0.0003,0.1445,0.0557,0.0515,5.0,2.0,2.0,0.0,0.1568,0.0003,0.1632,0,3
2.46,4.8631,1.9506,1.9302,0.0024,-0.0018,-0.0009,0.035,0.019,0.0037,5.0,2.0,2.0,0.0,0.1614,0.0009,0.04,0,15
2.48,4.8579,1.9478,1.9317,0.0005,-0.0006,-0.0001,0.13,0.0572,0.0199,5.0,2.0,2.0,0.0,0.1661,0.0001,0.1434,0,7
2.5,4.8529,1.945,1.9325,0.0021,0.0027,-0.0006,0.1574,0.0638,0.0496,5.0,2.0,2.0,0.0,0.171,0.0006,0.177,0,3
2.52,4.8482,1.9421,1.9333,0.0011,0.0047,-0.0003,0.0682,0.0397,0.0133,5.0,2.0,2.0,0.0,0.1756,0.0003,0.08,0,13
2.54,4.8441,1.9394,1.934,-0.0018,0.0051,-0.0001,0.1432,0.0669,0.0309,5.0,2.0,2.0,0.0,0.1798,0.0001,0.161,0,6
2.56,4.8404,1.9368,1.9348,-0.0009,0.0071,-0.0005,0.1939,0.0825,0.0615,5.0,2.0,2.0,0.0,0.1837,0.0005,0.2195,0,1
2.58,4.8374,1.9344,1.9363,-0.0011,0.01,-0.0009,0.1682,0.0801,0.0361,5.0,2.0,2.0,0.0,0.1866,0.0009,0.1897,0,4
2.6,4.8351,1.9322,1.9386,-0.003,0.0127,-0.0006,0.1249,0.0806,0.0001,5.0,2.0,2.0,0.0,0.1885,0.0006,0.1486,0,8
2.62,4.8337,1.9302,1.9406,-0.004,0.0129,-0.0007,0.0774,0.0633,0.0032,5.0,2.0,2.0,0.0,0.1898,0.0007,0.1,0,12
2.64,4.8331,1.9286,1.9416,-0.0046,0.0124,-0.0001,0.0561,0.0535,0.0197,5.0,2.0,2.0,0.0,0.1907,0.0001,0.08,0,13
2.66,4.8333,1.9274,1.9419,-0.005,0.0125,-0.0005,0.1991,0.0935,0.0621,5.0,2.0,2.0,0.0,0.1909,0.0005,0.2286,0,0
2.68,4.8343,1.9265,1.943,-0.0036,0.0151,-0.0009,0.1934,0.093,0.0575,5.0,2.0,2.0,0.0,0.19,0.0009,0.2221,0,0
2.7,4.8364,1.9259,1.9445,-0.0048,0.0174,-0.0005,0.033,0.047,0.0078,5.0,2.0,2.0,0.0,0.188,0.0005,0.058,0,9
2.72,4.8393,1.9257,1.9454,-0.0088,0.0124,0.0002,0.0199,0.0428,0.0169,5.0,2.0,2.0,0.0,0.1853,-0.0002,0.0501,0,8
2.74,4.8429,1.9261,1.9456,-0.0082,0.0114,-0.0,0.0659,0.0445,0.0283,5.0,2.0,2.0,0.0,0.1819,0.0,0.0844,0,6
2.76,4.8472,1.9269,1.9458,-0.0069,0.0108,-0.0,-0.0161,0.0169,0.0228,5.0,2.0,2.0,0.0,0.1778,0.0,0.0327,0,10
2.78,4.8521,1.9282,1.9462,-0.0081,0.0092,-0.0001,0.1086,0.0581,0.0409,5.0,2.0,2.0,0.0,0.173,0.0001,0.1298,0,3
2.8,4.8575,1.93,1.9472,-0.0063,0.0099,-0.0005,0.0387,0.0279,0.0216,5.0,2.0,2.0,0.0,0.1673,0.0005,0.0524,0,6
2.82,4.8634,1.9321,1.9485,-0.0063,0.0095,-0.0002,-0.0507,-0.007,0.0086,5.0,2.0,2.0,0.0,0.161,0.0002,0.0519,0,9
2.84,4.8696,1.9346,1.9493,-0.0074,0.0056,-0.0001,-0.0567,-0.0145,0.0126,5.0,2.0,2.0,0.0,0.1545,0.0001,0.0599,0,10
2.86,4.8759,1.9374,1.95,-0.0063,0.0033,-0.0003,-0.0647,-0.0222,0.0194,5.0,2.0,2.0,0.0,0.1477,0.0003,0.0711,0,8
2.88,4.8822,1.9404,1.9507,-0.0042,0.0023,-0.0005,-0.0678,-0.0284,0.0168,5.0,2.0,2.0,0.0,0.1409,0.0005,0.0754,0,8
2.9,4.8885,1.9436,1.9512,-0.0027,0.0009,0.0001,0.0914,0.0461,0.0464,5.0,2.0,2.0,0.0,0.1341,-0.0001,0.1124,0,1
2.92,4.8946,1.9468,1.9521,-0.0006,0.0021,-0.0008,0.0746,0.0372,0.0387,5.0,2.0,2.0,0.0,0.1274,0.0008,0.0919,0,2
2.94,4.9007,1.95,1.9535,-0.0008,0.0034,-0.0001,-0.0693,-0.0343,0.0052,5.0,2.0,2.0,0.0,0.1205,0.0001,0.0775,0,9
2.96,4.9066,1.9532,1.9544,-0.0026,-0.0013,0.0002,-0.0352,-0.0169,0.0086,5.0,2.0,2.0,0.0,0.114,-0.0002,0.04,0,15
2.98,4.9123,1.9564,1.9544,-0.0011,-0.0032,0.0004,-0.0666,-0.0368,0.0241,5.0,2.0,2.0,0.0,0.1081,-0.0004,0.0798,0,9
3.0,4.9176,1.9594,1.9545,0.0003,-0.0023,-0.0003,-0.0325,-0.0172,0.0156,5.0,2.0,2.0,0.0,0.1025,0.0003,0.04,0,15
3.02,4.9226,1.9624,1.9548,0.002,-0.0033,0.0001,-0.0825,-0.0468,0.0317,5.0,2.0,2.0,0.0,0.0972,-0.0001,0.1,0,12
3.04,4.9272,1.9651,1.9556,0.0016,-0.0049,-0.0006,-0.0835,-0.0481,0.0267,5.0,2.0,2.0,0.0,0.0921,0.0006,0.1,0,12
3.06,4.9313,1.9676,1.9563,0.0022,-0.0062,-0.001,-0.0324,-0.0184,0.0147,5.0,2.0,2.0,0.0,0.0877,0.001,0.04,0,15
3.08,4.9348,1.9698,1.9569,0.0043,-0.0065,-0.0006,-0.0331,-0.0221,0.0141,5.0,2.0,2.0,0.0,0.0838,0.0006,0.0422,0,10
3.1,4.9378,1.9717,1.9567,0.0043,-0.0055,-0.0008,0.0101,-0.0,0.0252,5.0,2.0,2.0,0.0,0.0809,0.0008,0.0272,0,6
3.12,4.9404,1.9731,1.9566,0.0053,-0.0054,-0.0009,-0.021,-0.0133,0.0226,5.0,2.0,2.0,0.0,0.0785,0.0009,0.0336,0,9
3.14,4.9425,1.9742,1.9568,0.0043,-0.0054,-0.0005,-0.0123,-0.0063,0.0168,5.0,2.0,2.0,0.0,0.0764,0.0005,0.0218,0,10
3.16,4.9441,1.975,1.9571,0.0042,-0.0067,-0.0006,-0.0049,-0.0012,0.0151,5.0,2.0,2.0,0.0,0.0748,0.0006,0.0159,0,10
3.18,4.9453,1.9755,1.9574,0.0041,-0.0063,-0.0004,-0.0056,0.0029,0.0256,5.0,2.0,2.0,0.0,0.0735,0.0004,0.0264,0,13
3.2,4.9461,1.9758,1.9577,0.0045,-0.0045,-0.0,0.0089,0.0085,0.0157,5.0,2.0,2.0,0.0,0.0727,0.0,0.02,0,10
3.22,4.9466,1.9757,1.958,0.0036,-0.0052,-0.0002,0.0145,0.0133,0.0144,5.0,2.0,2.0,0.0,0.0722,0.0002,0.0244,0,10
3.24,4.9467,1.9755,1.9585,0.0031,-0.0047,-0.0003,0.0156,0.0182,0.0187,5.0,2.0,2.0,0.0,0.0718,0.0003,0.0304,0,15
3.26,4.9466,1.975,1.9585,0.0032,-0.0031,-0.0001,0.0358,0.0205,0.0231,5.0,2.0,2.0,0.0,0.0721,0.0001,0.0473,0,6
3.28,4.9463,1.9744,1.9583,0.0019,-0.0031,-0.0002,0.0378,0.0224,0.0242,5.0,2.0,2.0,0.0,0.0726,0.0002,0.0502,0,6
3.3,4.9459,1.9738,1.9582,0.0015,-0.0022,-0.0009,0.0306,0.0251,0.02,5.0,2.0,2.0,0.0,0.0732,0.0009,0.0443,0,10
3.32,4.9453,1.973,1.9579,0.0008,-0.0004,-0.0008,0.0296,0.0239,0.0196,5.0,2.0,2.0,0.0,0.0741,0.0008,0.0428,0,11
3.34,4.9447,1.9723,1.9579,0.0001,-0.0007,-0.0008,0.0311,0.0246,0.0165,5.0,2.0,2.0,0.0,0.0748,0.0008,0.0429,0,11
3.36,4.944,1.9715,1.9583,-0.0,-0.001,-0.0009,0.0489,0.029,0.0248,5.0,2.0,2.0,0.0,0.0755,0.0009,0.062,0,5
3.38,4.9433,1.9708,1.9587,-0.0006,-0.0002,-0.0006,0.0367,0.0315,0.0213,5.0,2.0,2.0,0.0,0.076,0.0006,0.0528,0,14
3.4,4.9427,1.9701,1.9593,-0.0012,0.0021,-0.0006,0.0491,0.0289,0.0219,5.0,2.0,2.0,0.0,0.0764,0.0006,0.061,0,5
3.42,4.9422,1.9696,1.96,-0.0015,0.0009,-0.0005,0.04,0.0287,0.0116,5.0,2.0,2.0,0.0,0.0766,0.0005,0.0506,0,8
3.44,4.9418,1.9692,1.9607,-0.0018,0.0027,-0.0004,0.035,0.0245,0.0098,5.0,2.0,2.0,0.0,0.0767,0.0004,0.0438,0,9
3.46,4.9415,1.9688,1.9614,-0.0023,0.0031,-0.0004,0.0348,0.0202,0.0123,5.0,2.0,2.0,0.0,0.0767,0.0004,0.0421,0,7
3.48,4.9414,1.9686,1.9612,-0.0025,0.0024,-0.0002,0.045,0.0255,0.0268,5.0,2.0,2.0,0.0,0.0769,0.0002,0.0582,0,5
3.5,4.9415,1.9686,1.9606,-0.0027,0.0018,-0.0001,0.0429,0.0239,0.03,5.0,2.0,2.0,0.0,0.0772,0.0001,0.0576,0,5
3.52,4.9418,1.9688,1.9602,-0.0037,0.0038,-0.0009,0.0409,0.0219,0.0286,5.0,2.0,2.0,0.0,0.0771,0.0009,0.0545,0,5
3.54,4.9423,1.9691,1.9601,-0.0036,0.0043,-0.001,0.0385,0.0196,0.0274,5.0,2.0,2.0,0.0,0.0767,0.001,0.0512,0,5
3.56,4.943,1.9697,1.96,-0.0032,0.004,-0.0013,0.0359,0.0174,0.0261,5.0,2.0,2.0,0.0,0.076,0.0013,0.0477,0,5
3.58,4.9439,1.9704,1.9602,-0.0032,0.0041,-0.0014,0.0331,0.0152,0.0249,5.0,2.0,2.0,0.0,0.0749,0.0014,0.0441,0,5
3.6,4.945,1.9712,1.9604,-0.0032,0.0043,-0.0015,0.0301,0.0129,0.0239,5.0,2.0,2.0,0.0,0.0736,0.0015,0.0405,0,5
3.62,4.9463,1.9723,1.9607,-0.0029,0.0043,-0.0015,0.027,0.0106,0.023,5.0,2.0,2.0,0.0,0.0721,0.0015,0.037,0,5
3.64,4.9478,1.9734,1.9611,-0.0027,0.0041,-0.0016,0.0238,0.0084,0.0224,5.0,2.0,2.0,0.0,0.0703,0.0016,0.0338,0,5
3.66,4.9495,1.9747,1.9615,-0.0025,0.004,-0.0016,0.0207,0.0063,0.0221,5.0,2.0,2.0,0.0,0.0683,0.0016,0.0309,0,5
3.68,4.9514,1.976,1.9619,-0.0022,0.0038,-0.0016,0.0176,0.0044,0.022,5.0,2.0,2.0,0.0,0.0662,0.0016,0.0285,0,5
3.7,4.9535,1.9775,1.9622,-0.002,0.0035,-0.0016,0.0146,0.0025,0.0222,5.0,2.0,2.0,0.0,0.064,0.0016,0.0267,0,5
3.72,4.9556,1.979,1.9624,-0.0017,0.0033,-0.0016,0.0117,0.0008,0.0226,5.0,2.0,2.0,0.0,0.0618,0.0016,0.0254,0,5
3.74,4.9579,1.9805,1.9626,-0.0014,0.0029,-0.0017,0.009,-0.0007,0.0232,5.0,2.0,2.0,0.0,0.0596,0.0017,0.0248,0,5
3.76,4.9602,1.9821,1.9626,-0.0011,0.0026,-0.0017,0.0064,-0.002,0.0239,5.0,2.0,2.0,0.0,0.0574,0.0017,0.0249,0,5
3.78,4.9626,1.9836,1.9626,-0.0008,0.0022,-0.0018,0.0041,-0.0031,0.0249,5.0,2.0,2.0,0.0,0.0554,0.0018,0.0254,0,5
3.8,4.965,1.9851,1.9624,-0.0005,0.0019,-0.0019,0.002,-0.0041,0.026,5.0,2.0,2.0,0.0,0.0535,0.0019,0.0264,0,5
3.82,4.9675,1.9866,1.9624,-0.0002,0.0014,-0.0015,0.0001,-0.0048,0.0242,5.0,2.0,2.0,0.0,0.0515,0.0015,0.0246,0,5
3.84,4.9699,1.988,1.9627,0.0002,0.0009,-0.0014,-0.0015,-0.0053,0.0217,5.0,2.0,2.0,0.0,0.0494,0.0014,0.0224,0,5
3.86,4.9722,1.9894,1.9634,0.0005,0.0004,-0.001,-0.0028,-0.0056,0.0192,5.0,2.0,2.0,0.0,0.0472,0.001,0.0202,0,5
3.88,4.9745,1.9907,1.9643,0.0007,0.0,-0.0007,-0.0038,-0.0057,0.0164,5.0,2.0,2.0,0.0,0.0449,0.0007,0.0178,0,5
3.9,4.9767,1.9918,1.9654,0.0009,-0.0002,-0.0004,-0.0045,-0.0056,0.0139,5.0,2.0,2.0,0.0,0.0425,0.0004,0.0157,0,5
3.92,4.9788,1.9929,1.9667,0.001,-0.0005,-0.0001,-0.0051,-0.0055,0.0118,5.0,2.0,2.0,0.0,0.0401,0.0001,0.014,0,5
3.94,4.9808,1.9939,1.9681,0.0011,-0.0007,0.0001,-0.0054,-0.0052,0.0102,5.0,2.0,2.0,0.0,0.0377,-0.0001,0.0126,0,5
3.96,4.9827,1.9948,1.9696,0.0011,-0.0009,0.0003,-0.0056,-0.0048,0.0088,5.0,2.0,2.0,0.0,0.0354,-0.0003,0.0115,0,5
3.98,4.9844,1.9955,1.9711,0.0011,-0.001,0.0005,-0.0056,-0.0044,0.0078,5.0,2.0,2.0,0.0,0.0332,-0.0005,0.0106,0,5
4.0,4.986,1.9962,1.9725,0.0012,-0.0011,0.0006,-0.0055,-0.0039,0.0069,5.0,2.0,2.0,0.0,0.0311,-0.0006,0.0097,0,5
4.02,4.9875,1.9968,1.974,0.0012,-0.0012,0.0007,-0.0053,-0.0034,0.0062,5.0,2.0,2.0,0.0,0.0291,-0.0007,0.0089,0,5
4.04,4.9888,1.9973,1.9753,0.0011,-0.0013,0.0008,-0.0051,-0.0029,0.0056,5.0,2.0,2.0,0.0,0.0272,-0.0008,0.0081,0,5
4.06,4.99,1.9977,1.9767,0.0011,-0.0013,0.0008,-0.0047,-0.0023,0.0051,5.0,2.0,2.0,0.0,0.0255,-0.0008,0.0073,0,5
4.08,4.9911,1.998,1.978,0.001,-0.0013,0.0009,-0.0043,-0.0018,0.0046,5.0,2.0,2.0,0.0,0.0238,-0.0009,0.0065,0,5
4.1,4.9921,1.9983,1.9792,0.001,-0.0013,0.0009,-0.0038,-0.0012,0.0042,5.0,2.0,2.0,0.0,0.0223,-0.0009,0.0058,0,5
4.12,4.993,1.9985,1.9804,0.0009,-0.0013,0.0009,-0.0033,-0.0007,0.0038,5.0,2.0,2.0,0.0,0.0209,-0.0009,0.0051,0,5
4.14,4.9937,1.9986,1.9816,0.0008,-0.0012,0.0009,-0.0028,-0.0002,0.0034,5.0,2.0,2.0,0.0,0.0195,-0.0009,0.0044,0,5
4.16,4.9944,1.9987,1.9827,0.0007,-0.0012,0.0009,-0.0023,0.0003,0.003,5.0,2.0,2.0,0.0,0.0183,-0.0009,0.0037,0,5
4.18,4.9949,1.9987,1.9837,0.0006,-0.0011,0.0009,-0.0017,0.0007,0.0025,5.0,2.0,2.0,0.0,0.0171,-0.0009,0.0032,0,5
4.2,4.9954,1.9987,1.9848,0.0006,-0.001,0.0009,-0.0012,0.0011,0.0021,5.0,2.0,2.0,0.0,0.016,-0.0009,0.0027,0,5
4.22,4.9958,1.9986,1.9858,0.0005,-0.0009,0.0009,-0.0008,0.0014,0.0017,5.0,2.0,2.0,0.0,0.0149,-0.0009,0.0023,0,5
4.24,4.9961,1.9986,1.9868,0.0004,-0.0008,0.0009,-0.0003,0.0017,0.0012,5.0,2.0,2.0,0.0,0.0139,-0.0009,0.0022,0,5
4.26,4.9964,1.9985,1.9877,0.0003,-0.0007,0.0008,0.0001,0.002,0.0008,5.0,2.0,2.0,0.0,0.0129,-0.0008,0.0021,0,5
4.28,4.9966,1.9984,1.9887,0.0002,-0.0006,0.0008,0.0005,0.0022,0.0004,5.0,2.0,2.0,0.0,0.012,-0.0008,0.0022,0,5
4.3,4.9967,1.9983,1.9896,0.0001,-0.0005,0.0008,0.0008,0.0023,-0.0001,5.0,2.0,2.0,0.0,0.0111,-0.0008,0.0024,0,5
4.32,4.9969,1.9982,1.9905,0.0,-0.0004,0.0008,0.001,0.0024,-0.0005,5.0,2.0,2.0,0.0,0.0102,-0.0008,0.0027,0,5
4.34,4.997,1.9981,1.9913,-0.0,-0.0003,0.0008,0.0012,0.0024,-0.0009,5.0,2.0,2.0,0.0,0.0094,-0.0008,0.0029,0,5
4.36,4.9971,1.998,1.9922,-0.0001,-0.0002,0.0008,0.0014,0.0024,-0.0013,5.0,2.0,2.0,0.0,0.0086,-0.0008,0.0031,0,5
4.38,4.9971,1.9979,1.993,-0.0002,-0.0001,0.0008,0.0015,0.0024,-0.0016,5.0,2.0,2.0,0.0,0.0078,-0.0008,0.0033,0,5
4.4,4.9972,1.9978,1.9938,-0.0002,-0.0001,0.0007,0.0016,0.0023,-0.002,5.0,2.0,2.0,0.0,0.0071,-0.0007,0.0034,0,5
4.42,4.9972,1.9978,1.9946,-0.0003,0.0,0.0007,0.0016,0.0022,-0.0023,5.0,2.0,2.0,0.0,0.0065,-0.0007,0.0036,0,5
4.44,4.9973,1.9978,1.9953,-0.0003,0.0001,0.0007,0.0016,0.002,-0.0026,5.0,2.0,2.0,0.0,0.0058,-0.0007,0.0037,0,5
4.46,4.9973,1.9977,1.9961,-0.0003,0.0002,0.0007,0.0015,0.0018,-0.0029,5.0,2.0,2.0,0.0,0.0053,-0.0007,0.0037,0,5
4.48,4.9974,1.9977,1.9968,-0.0004,0.0002,0.0006,0.0014,0.0016,-0.0032,5.0,2.0,2.0,0.0,0.0047,-0.0006,0.0038,0,5
4.5,4.9975,1.9978,1.9974,-0.0004,0.0003,0.0006,0.0012,0.0014,-0.0034,5.0,2.0,2.0,0.0,0.0042,-0.0006,0.0039,0,5
4.52,4.9975,1.9978,1.9981,-0.0004,0.0003,0.0006,0.001,0.0012,-0.0036,5.0,2.0,2.0,0.0,0.0038,-0.0006,0.004,0,5
4.54,4.9976,1.9979,1.9987,-0.0004,0.0003,0.0005,0.0008,0.0009,-0.0039,5.0,2.0,2.0,0.0,0.0034,-0.0005,0.0041,0,5
4.56,4.9977,1.998,1.9993,-0.0004,0.0004,0.0005,0.0006,0.0006,-0.0041,5.0,2.0,2.0,0.0,0.0031,-0.0005,0.0042,0,5
4.58,4.9979,1.9981,1.9999,-0.0004,0.0004,0.0005,0.0003,0.0004,-0.0043,5.0,2.0,2.0,0.0,0.0029,-0.0005,0.0043,0,5
4.6,4.998,1.9982,2.0005,-0.0004,0.0004,0.0005,0.0,0.0001,-0.0045,5.0,2.0,2.0,0.0,0.0027,-0.0005,0.0045,0,5
4.62,4.9982,1.9983,2.001,-0.0003,0.0004,0.0004,-0.0003,-0.0002,-0.0047,5.0,2.0,2.0,0.0,0.0026,-0.0004,0.0047,0,5
4.64,4.9984,1.9985,2.0015,-0.0003,0.0004,0.0004,-0.0006,-0.0004,-0.0048,5.0,2.0,2.0,0.0,0.0027,-0.0004,0.0049,0,5
4.66,4.9986,1.9987,2.002,-0.0003,0.0004,0.0004,-0.0009,-0.0007,-0.005,5.0,2.0,2.0,0.0,0.0028,-0.0004,0.0051,0,5
4.68,4.9988,1.9988,2.0025,-0.0003,0.0004,0.0004,-0.0012,-0.0009,-0.0052,5.0,2.0,2.0,0.0,0.003,-0.0004,0.0054,0,5
4.7,4.999,1.999,2.0029,-0.0002,0.0003,0.0003,-0.0015,-0.0011,-0.0054,5.0,2.0,2.0,0.0,0.0033,-0.0003,0.0057,0,5
4.72,4.9992,1.9992,2.0034,-0.0002,0.0003,0.0003,-0.0018,-0.0013,-0.0055,5.0,2.0,2.0,0.0,0.0036,-0.0003,0.006,0,5
4.74,4.9995,1.9994,2.0038,-0.0002,0.0003,0.0003,-0.002,-0.0015,-0.0057,5.0,2.0,2.0,0.0,0.0039,-0.0003,0.0063,0,5
4.76,4.9997,1.9996,2.0042,-0.0002,0.0003,0.0003,-0.0023,-0.0017,-0.0059,5.0,2.0,2.0,0.0,0.0043,-0.0003,0.0066,0,5
4.78,5.0,1.9998,2.0046,-0.0001,0.0002,0.0003,-0.0026,-0.0019,-0.006,5.0,2.0,2.0,0.0,0.0046,-0.0003,0.0068,0,5
4.8,5.0002,2.0,2.005,-0.0001,0.0002,0.0003,-0.0028,-0.002,-0.0062,5.0,2.0,2.0,0.0,0.005,-0.0003,0.0071,0,5
4.82,5.0005,2.0002,2.0054,-0.0001,0.0002,0.0002,-0.003,-0.0022,-0.0064,5.0,2.0,2.0,0.0,0.0054,-0.0002,0.0074,0,5
4.84,5.0008,2.0004,2.0058,-0.0001,0.0002,0.0002,-0.0032,-0.0023,-0.0065,5.0,2.0,2.0,0.0,0.0058,-0.0002,0.0076,0,5
4.86,5.001,2.0006,2.0061,-0.0,0.0001,0.0002,-0.0034,-0.0024,-0.0067,5.0,2.0,2.0,0.0,0.0063,-0.0002,0.0079,0,5
4.88,5.0013,2.0008,2.0065,-0.0,0.0001,0.0002,-0.0036,-0.0024,-0.0068,5.0,2.0,2.0,0.0,0.0067,-0.0002,0.0081,0,5
4.9,5.0016,2.001,2.0068,0.0,0.0001,0.0002,-0.0037,-0.0025,-0.007,5.0,2.0,2.0,0.0,0.0071,-0.0002,0.0083,0,5
4.92,5.0018,2.0011,2.0072,0.0,0.0,0.0002,-0.0039,-0.0026,-0.0071,5.0,2.0,2.0,0.0,0.0075,-0.0002,0.0085,0,5
4.94,5.0021,2.0013,2.0075,0.0,0.0,0.0002,-0.004,-0.0026,-0.0072,5.0,2.0,2.0,0.0,0.0079,-0.0002,0.0087,0,5
